the_geom,Name,Address,Phone,Website,Descrip,Sector,Group,Industry,NAICS_Code,Curr_Oper,SquareFeet,OwnType,BusSize,Lat,Long,ChamberOC
POINT (-113.35067224530914 53.55872574252616),Petro-Canada Inc,401 PETROLEUM WAY,,,,,,,,Yes,1378,Private,,53.5587257425,-113.3506722453,
POINT (-113.22089386043874 53.52696609472509),Caldon Management Associates Ltd,52501 RNG RD 225,780-464-5569,,,,,,,Yes,1755,Private,,53.5269660947,-113.2208938604,
POINT (-112.97833251947777 53.46552276579838),Bushman Inc,21061A WYE RD,,http://www.bushman-inc.ca,,,,,,Yes,2379,Private,,53.4655227658,-112.9783325195,
POINT (-113.07917261168498 53.77720145881128),Pembina,55418 RNG RD 214,,,,,,,,Yes,,Private,,53.7772014588,-113.0791726117,
POINT (-113.3178487403743 53.56324131093387),Vacant,,,,,,,,0,No,,Private,,53.563241311,-113.3178487404,
POINT (-113.3141405515073 53.54960507361171),Vacant,,,,,,,,0,No,,Private,,53.5496050736,-113.3141405515,
POINT (-113.29203160722 53.57178782900538),All Star RV,137 TURBO DR,780-449-6177,http://www.allstarrv.com,,Recreational vehicle dealers,Other motor vehicle dealers,Retail trade 44,441210,Yes,,Private,,53.571787829,-113.2920316072,
POINT (-113.32485137989202 53.538403543995216),"Hursin, Loretta J. Dds","118, 150 CHIPPEWA RD",780-417-5580,,,Offices of dentists,Offices of dentists,Health care and social assistance,621210,Yes,1184,Private,,53.538403544,-113.3248513799,
POINT (-113.0732269283827 53.53918456992121),Buzz Plumbing Services Inc.,52569 RNG RD 215,780-231-0730,,,,,,,Yes,,Private,,53.5391845699,-113.0732269284,
POINT (-113.32085418772934 53.536899566491456),On-Core Services,"205, 2 ATHABASCAN AV",780-640-8244,,,"Bookkeeping, payroll & related services","Accounting, tax prep. & bookkeeping services","Professional, scientific and technical services",541215,Yes,,Private,,53.5368995665,-113.3208541877,Yes
POINT (-113.33043107924372 53.53832166600148),The Door Works,325 KASKA RD,780-489-3667,http://www.thedoorworks.ca,,Finish carpentry contractors,Building finishing contractors,Construction,238350,Yes,,Private,,53.538321666,-113.3304310792,
POINT (-113.29837036032224 53.424339294358774),Aqualine Waterfeatures and Landscape,23211 TWP RD 514,780-467-3450,http://www.aqualinewaterfeatures.com,,Landscaping services,Services to buildings & dwellings,"Administrative and support, waste management and remediation services",561730,Yes,,Private,,53.4243392944,-113.2983703603,
POINT (-113.0492553710237 53.47913360586886),Skippen Rope Ranch,52157 RNG RD 214,780-719-5852,,,"Beef cattle ranching & farming, inc. feedlots",Cattle ranching & farming,"Agriculture, forestry, fishing and hunting",112110,Yes,,Private,,53.4791336059,-113.049255371,
POINT (-113.15225982727854 53.42240905820827),Neighbours Tree Service,22216 SOUTH COOKING LAKE RD,780-919-2302,http://www.sherwoodparkarborist.ca,,Landscaping services,Services to buildings & dwellings,"Administrative and support, waste management and remediation services",561730,Yes,,Private,,53.4224090582,-113.1522598273,
POINT (-113.09759521489752 53.4933547970547),Flying Compass Truck,52257 RNG RD 220,780-991-8686,,,"General freight trucking, local",General freight trucking,Transportation and warehousing 48,484110,Yes,1345,Private,,53.4933547971,-113.0975952149,
POINT (-113.30402374300957 53.51711654709817),Boys & Girls Club Of Strathcona County,3 SPRUCE AV,780-416-1500,http://www.scbgc.com,,All other schools & instruction,Other schools & instruction,Educational services,611690,Yes,,Private,,53.5171165471,-113.304023743,Yes
POINT (-113.32206365109327 53.53466851433435),Servicemaster of Edmonton - Commercial,32 SIOUX RD,780-417-9123,http://www.smcleanedmonton.ca/index.php,,Carpet & upholstery cleaning services,Services to buildings & dwellings,"Administrative and support, waste management and remediation services",561740,Yes,,Private,,53.5346685144,-113.3220636511,
POINT (-113.32491826273902 53.540622194633784),Avis Rent A Car,"600, 33 BLACKFOOT RD",780-416-0065,,,Passenger car rental,Automotive equipment rental & leasing,Real estate and rental and leasing,532111,Yes,,Private,,53.5406221947,-113.3249182627,Yes
POINT (-113.33058614440624 53.53911139472274),Jacek Chocolate Couture,406 KASKA RD,780-464-5200,http://www.jacekchocolate.com,,Confectionery & nut stores,Specialty food stores,Retail trade 44,445292,Yes,1389,Private,,53.5391113947,-113.3305861444,Yes
POINT (-113.3256592518268 53.53937502890844),Icon Experience Photography,180 KASKA RD,780-449-3558,http://www.iconexp.com,,Photographic services,"Other prof., scientific & technical services","Professional, scientific and technical services",541920,Yes,,Private,,53.5393750289,-113.3256592518,
POINT (-113.33164027188474 53.5369221419648),Step by Step School of Dance,449 SIOUX RD,780-464-3788,http://www.stepbystepdance.ca,,Fine arts schools,Other schools & instruction,Educational services,611610,Yes,1335,Private,,53.536922142,-113.3316402719,
POINT (-113.29507446269984 53.52525329604441),Trail Tire,2006 SHERWOOD DR,780-467-5387,http://www.tirevillage.com,,Automotive parts & accessories stores,"Automotive parts, accessories & tire stores",Retail trade 44,441310,Yes,1098,Private,,53.5252532961,-113.2950744627,
POINT (-113.37380981472545 53.52170562690834),Elliott Turbomachinery Canada Inc.,2024 87 AV,780-449-3080,http://www.elliott-turbo.com,,Turbine & turbine generator set unit mfg.,"Engine, turbine & power transmission mfg.",Manufacturing 33,333611,Yes,,Private,,53.5217056269,-113.3738098147,Yes
POINT (-113.30987483971316 53.54312319891899),"Nebbe, Brian Dds","26, 171 BROADWAY BLVD",780-449-6597,,,Offices of dentists,Offices of dentists,Health care and social assistance,621210,Yes,1184,Private,,53.5431231989,-113.3098748397,
POINT (-113.12155914266889 53.429382323954584),Cooking Lake Airport,51401 RNG RD 221,,,,Other airport operations,Support activities for air transportation,Transportation and warehousing 48,488119,Yes,1345,Private,,53.429382324,-113.1215591427,
POINT (-112.97493743841787 53.55825424194075),The Fish Ranch,53113 RNG RD 211,780-922-1178,,,All other amusement & recreation industries,Other amusement & recreation industries,"Arts, entertainment and recreation",713990,Yes,,Private,,53.558254242,-112.9749374384,
POINT (-113.22074127136743 53.434436798169436),Kesho Construction Services Ltd,51453 RNG RD 225,780-449-4005,,,Industrial building & structure construction,Non-residential building construction,Construction,236210,Yes,6760,Private,,53.4344367982,-113.2207412714,
POINT (-113.29474094996164 53.54323651225136),Innovative Mortgage Solutions,"111, 85 CRANFORD WY",780-416-1085,http://www.innovativemortgage.ca,,Mortgage & other loan brokers,Activities related to credit intermediation,Finance and insurance,522310,Yes,,Private,,53.5432365123,-113.29474095,Yes
POINT (-113.29406675229723 53.57635758169291),Cobra Directional Drilling,5 LIBERTY RD,780-466-3180,,,Site preparation contractors,Other specialty trade contractors,Construction,238910,Yes,1033,Private,,53.5763575817,-113.2940667523,
POINT (-112.85482025134976 53.41494751006032),Universal Earthmovers Ltd.,51328 RNG RD 202,780-662-4557,,,Site preparation contractors,Other specialty trade contractors,Construction,238910,Yes,,Private,,53.4149475101,-112.8548202513,
POINT (-113.07190704312242 53.536941528453774),1486934 Alberta Ltd,52557 RNG RD 215,780-467-3555,,,Other food crops grown under cover,"Greenhouse, nursery & floriculture production","Agriculture, forestry, fishing and hunting",111419,Yes,,Private,,53.5369415285,-113.0719070431,
POINT (-113.28953552248319 53.528015137296144),Centre Park Church,52 PEACOCK DR,780-467-7177,http://www.centreparkchurch.ca/,,Religious organizations,Religious organizations,Other services (except public administration),813110,Yes,1184,Institutional,,53.5280151373,-113.2895355225,
POINT (-113.32998381848222 53.53772688726351),Lety Construction,194 CREE RD,780-467-6960,http://www.letyconstruction.ca,,Poured concrete foundation contractors,"Foundation, structure & related contractors",Construction,238110,Yes,1033,Private,,53.5377268873,-113.3299838185,Yes
POINT (-113.09941863967059 53.45044326777985),Paydar Consulting Ltd.,51562 RNG RD 220,780-499-0589,,,,,,,Yes,1389,Private,,53.4504432678,-113.0994186397,
POINT (-113.27386474566983 53.51278686551047),Armour Insurance Group Ltd.,"140, 664 WYE RD",780-417-2848,http://www.armourinsurance.ca/sherwood-park-insurance,Insurance,All other services to buildings & dwellings,Services to buildings & dwellings,"Administrative and support, waste management and remediation services",561799,Yes,1200,Private,,53.5127868655,-113.2738647457,Yes
POINT (-113.36657714777975 53.52162933281605),Jag Fabrication Inc.,"140, 8710 15 ST",780-467-9954,,,Cold-rolled steel shape mfg.,Steel product mfg. from purchased steel,Manufacturing 33,331221,Yes,,Private,,53.5216293328,-113.3665771478,Yes
POINT (-113.32705688483837 53.538398742618696),Fargo Insulations Ltd,"19, 201 KASKA RD",780-417-7040,,,Drywall & insulation contractors,Building finishing contractors,Construction,238310,Yes,5005,Private,,53.5383987426,-113.3270568848,
POINT (-113.32525355058262 53.535437461906646),Core Family Medical Clinic,"222, 80 CHIPPEWA RD",780-464-9661,http://corefamilymedical.com/index.html,,Offices of physicians,Offices of physicians,Health care and social assistance,621110,Yes,6308,Private,Small,53.5354374619,-113.3252535506,
POINT (-113.29051208481681 53.45478057939464),"Buote, Phil Dvm",23164 TWP RD 520,780-464-1240,,,Veterinary services,"Other prof., scientific & technical services","Professional, scientific and technical services",541940,Yes,1184,Private,,53.4547805794,-113.2905120848,
POINT (-113.36339902945174 53.54900305551223),Keyera Edmonton Terminal,1680 102 AV,780-464-9150,http://www.keyera.com,,Pipeline transportation of natural gas,Pipeline transportation of natural gas,Transportation and warehousing 48,486210,Yes,,Private,,53.5490030555,-113.3633990295,
POINT (-113.29878997794796 53.554019928344694),Days Inn & Suites Sherwood Park,201 PALISADES WY,780-570-8080,http://www.daysinnsherwoodpark.ca/,Hotel,Hotels,Traveller accommodation,Accommodation and food services,721111,Yes,68085,Private,,53.5540199284,-113.2987899779,Yes
POINT (-113.3032226554234 53.5270423886948),Sherard Musical Theatre Assn.,100 FESTIVAL WY,780-416-9116,https://sherardmusicaltheatre.org/,"Sherard Musical Theatre Association is a not-for-profit, charitable organization that exists to support and promote musical theatre in Strathcona County.",Other membership organizations,"Business, prof., labour & other member. orgs",Other services (except public administration),813990,Yes,1184,Private,,53.5270423887,-113.3032226554,Yes
POINT (-113.32855987486748 53.53845214831752),Beckingham Enviromental Ltd.,265 KASKA RD,780-670-3016,http://www.beckinghamenviro.com,,Environmental consulting services,"Mgmt., scientific & technical consulting serv","Professional, scientific and technical services",541620,Yes,,Private,,53.5384521483,-113.3285598749,
POINT (-113.32287499232511 53.53618608918452),Plitt Cordell Realty Executives,"101, 37 ATHABASCAN AV",780-264-7653,http://www.dellsells.ca,,Real estate agents,Offices of real estate agents & brokers,Real estate and rental and leasing,531211,Yes,1518,Private,,53.5361860892,-113.3228749923,
POINT (-112.95278930607765 53.520416260371825),Rob's Mobile Electric Ltd.,52442 RNG RD 210,780-922-5121,,,All other automotive r&m,Automotive r&m,Other services (except public administration),811199,Yes,1033,Private,,53.5204162604,-112.9527893061,
POINT (-113.32400798584183 53.535546103629066),Chermik Communications Ltd.,"137, 65 CHIPPEWA RD",780-417-1487,http://www.chermik.net,,Electrical & other wiring contractors,Building equipment contractors,Construction,238210,Yes,,Private,,53.5355461036,-113.3240079858,
POINT (-113.2718200673723 53.612373352328326),D K A Trucking,53472 RNG RD 231,780-416-1777,,,"General freight trucking, local",General freight trucking,Transportation and warehousing 48,484110,Yes,3757,Private,,53.6123733523,-113.2718200674,
POINT (-113.29286901408739 53.58936981163236),Dragon Sandblasting & Painting (2001) Ltd,53323 RNG RD 232,780-472-6969,http://www.dragonsandblasting.com,,Industrial building & structure construction,Non-residential building construction,Construction,236210,Yes,39999,Private,,53.5893698117,-113.2928690141,
POINT (-113.18654511542773 53.51101331802769),Saddle Creek Ranch,22347 WYE RD,780-922-9205,http://www.saddlecreekranch.ca/index.php,"SCR is a boarding facility, specializing in the breeding, showing and sales of performance horses.",Horse & other equine production,Other animal production,"Agriculture, forestry, fishing and hunting",112920,Yes,,Private,,53.511013318,-113.1865451154,
POINT (-113.35005187992213 53.56818771351956),897438 Alberta Ltd,233 116 AV,780-449-4244,,,All other misc. fabricated metal product mfg.,Other fabricated metal product mfg.,Manufacturing 33,332999,Yes,,Private,,53.5681877135,-113.3500518799,
POINT (-113.27473449663331 53.512924194029075),Swan Cleaners,"240, 664 WYE RD",780-464-6667,,Dry Cleaning,Dry cleaning & laundry serv. (exc. coin-op.),Dry cleaning & laundry services,Other services (except public administration),812320,Yes,3294,Private,,53.512924194,-113.2747344966,
POINT (-113.27456211882318 53.551762205288796),Holy Spirit Catholic School,151 CRIMSON DR,780-416-9526,https://hs.eics.ab.ca/,Elk Island Catholic Schools - School (K-8),Elementary & secondary schools,Elementary & secondary schools,Educational services,611110,Yes,14198,Institutional,,53.5517622053,-113.2745621188,
POINT (-113.02709197993215 53.465633392241195),Better than Home Pet Boarding Inc,52066 RNG RD 213,780-922-3388,,,Pet care (exc. veterinary) services,Other personal services,Other services (except public administration),812910,Yes,,Private,,53.4656333923,-113.0270919799,
POINT (-113.30698895383799 53.523282130010266),Consumer Finance Strategies Inc,1604 SHERWOOD DR,780-416-2112,,,Administrative & gen. mgmt. consulting serv.,"Mgmt., scientific & technical consulting serv","Professional, scientific and technical services",541611,Yes,1184,Private,,53.52328213,-113.3069889538,
POINT (-112.92735290462946 53.45853805472154),"Fuelkell, Jeff Trucking Ltd",52020 RNG RD 205,780-922-4517,,,"General trucking, long distance, truck-load",General freight trucking,Transportation and warehousing 48,484121,Yes,1539,Private,,53.4585380547,-112.9273529046,
POINT (-113.30332135295198 53.54492512942913),Synergy Respiratory and Cardiac Care,"201, 501 BETHEL DR",780-800-6906,http://WWW.SYNERGYRESPIRATORY.COM,,Offices of physicians,Offices of physicians,Health care and social assistance,621110,Yes,,Private,,53.5449251294,-113.303321353,
POINT (-113.30987483971316 53.54312319891899),"Hesse, Karen L. Dds","26, 171 BROADWAY BLVD",780-449-6597,,,Offices of dentists,Offices of dentists,Health care and social assistance,621210,Yes,1184,Private,,53.5431231989,-113.3098748397,
POINT (-113.29313566951029 53.52839290275712),Park Dental,"302, 2018 SHERWOOD DR",780-467-2444,http://www.parkdentalcare.ca,,Offices of dentists,Offices of dentists,Health care and social assistance,621210,Yes,4445,Private,,53.5283929028,-113.2931356695,
POINT (-113.3310309078578 53.53732533044821),Kels Electrical Contracting Ltd.,505 SIOUX RD,780-449-1433,http://www.kelselectric.com,,Electrical & other wiring contractors,Building equipment contractors,Construction,238210,Yes,6598,Private,,53.5373253305,-113.3310309079,
POINT (-113.29451558821285 53.54330088497254),MPA Engineering Ltd,"304, 85 CRANFORD WY",780-416-3030,http://www.mpaeng.ca,,Engineering services,"Architectural, engineering & related services","Professional, scientific and technical services",541330,Yes,4112,Private,,53.543300885,-113.2945155882,
POINT (-113.29565429722145 53.524818419715906),Crystal Glass,2002 SHERWOOD DR,780-464-3010,https://crystalglass.ca/,,Other building material dealers,Building material & supplies dealers,Retail trade 44,444190,Yes,3294,Private,,53.5248184197,-113.2956542972,Yes
POINT (-113.32665621067764 53.53564046368502),Pig Out Promotions,151 ATHABASCAN AV,780-975-7443,http://www.pigoutpromotions.ca,,Caterers,Special food services,Accommodation and food services,722320,Yes,1098,Private,,53.5356404637,-113.3266562107,
POINT (-113.22251892129862 53.45816040021566),"Carroll, Deborah Dvm",52024 RNG RD 225,780-467-3765,,,Veterinary services,"Other prof., scientific & technical services","Professional, scientific and technical services",541940,Yes,2960,Private,,53.4581604002,-113.2225189213,
POINT (-113.07518005403175 53.52614211939045),Max Electric Ltd,52480 RNG RD 215,780-922-4181,,,Electrical & other wiring contractors,Building equipment contractors,Construction,238210,Yes,,Private,,53.5261421194,-113.075180054,
POINT (-113.32819351437954 53.538553834358076),Strathcona Food Bank Association,255 KASKA RD,780-449-6413,,,Community food services,"Community food & housing & emerg., etc. serv.",Health care and social assistance,624210,Yes,2099,Private,,53.5385538344,-113.3281935144,
POINT (-113.29230487816051 53.5785864714445),A R S Trucking & Welding Ltd,"10, 40 CHALLENGER CR",780-464-9612,,,"General trucking, long distance, truck-load",General freight trucking,Transportation and warehousing 48,484121,Yes,7287,Private,,53.5785864715,-113.2923048782,
POINT (-113.33022308292827 53.534774780532864),G & L Distributors Ltd.,282 ATHABASCAN AV,780-464-3186,http://www.gldistributors.ca/,Picnic products,Hardware whl.,Lumber & other building supplieswhl.,Wholesale trade,416330,Yes,8417,Private,,53.5347747806,-113.3302230829,
POINT (-113.31791829511928 53.54505358641673),Funky Petals Flower Shop,"2, 41 BROADWAY BLVD",780-449-0888,http://www.funkypetals.com,Florist,Florists,Florists,Retail trade 45,453110,Yes,3369,Private,,53.5450535864,-113.3179182951,Yes
POINT (-113.30987483971316 53.54312319891899),Align Orthodontics,"26, 171 BROADWAY BLVD",780-449-6597,http://www.alignortho.com,,Offices of dentists,Offices of dentists,Health care and social assistance,621210,Yes,,Private,,53.5431231989,-113.3098748397,
POINT (-113.30823516874455 53.525638579624875),Kinsmen Leisure Centre,2001 OAK ST,780-464-2112,https://www.strathcona.ca/departments/recreation-parks-and-culture/recreation-centres/kinsmen-leisure-centre/,"Facility features a 6-lane, 25m pool, dive pool, whirlpool/steamroom, kids teach pool and preschool playground.",Fitness & recreational sports centres,Other amusement & recreation industries,"Arts, entertainment and recreation",713940,Yes,3294,County,Large,53.5256385796,-113.3082351687,
POINT (-113.17320251422757 53.496726990463664),Lee Ridge Excavating Ltd,52274 RNG RD 223,780-922-4260,,,"General freight trucking, local",General freight trucking,Transportation and warehousing 48,484110,Yes,2422,Private,,53.4967269905,-113.1732025142,
POINT (-113.32491846505238 53.538112194384475),Break Forth Ministries Society,"128, 150 CHIPPEWA RD",780-417-5082,http://www.breakforthministries.com/,,Religious organizations,Religious organizations,Other services (except public administration),813110,Yes,4004,Institutional,,53.5381121944,-113.3249184651,
POINT (-113.37609100335806 53.519214630515265),Kane Instrumentation Ltd.,2109 84 AV,780-416-5263,http://www.kaneinstrumentation.com,,All other pipeline transportation,Other pipeline transportation,Transportation and warehousing 48,486990,Yes,4639,Private,,53.5192146305,-113.3760910034,
POINT (-113.32396241999749 53.53456355873141),Sherwood Park Registries,"104, 52 SIOUX RD",780-417-5283,http://www.sherwoodparkregistries.ca,,Other prov. & terr. public administration,Other prov. & terr. public administration,Public administration,912910,Yes,,Private,,53.5345635587,-113.32396242,Yes
POINT (-113.09790802000322 53.63949966376773),Redshank Trucking Ltd,54061 RNG RD 220,780-699-7174,,,"General freight trucking, local",General freight trucking,Transportation and warehousing 48,484110,Yes,1345,Private,,53.6394996638,-113.09790802,
POINT (-113.32072998054501 53.549205786928006),Inter Pipeline Ltd,2260 BROADMOOR BLVD,780-449-2200,http://www.interpipelinefund.com,,,,,,Yes,1001,Private,,53.5492057869,-113.3207299805,Yes
POINT (-113.29408206309752 53.52744328311543),Smarttax Inc.,2016 SHERWOOD DR,780-464-7007,,,Tax preparation services,"Accounting, tax prep. & bookkeeping services","Professional, scientific and technical services",541213,Yes,,Private,,53.5274432831,-113.2940820631,
POINT (-113.09261321986563 53.51287460309581),"Purcell, Robert",21560 WYE RD,780-922-2958,,,"Beef cattle ranching & farming, inc. feedlots",Cattle ranching & farming,"Agriculture, forestry, fishing and hunting",112110,Yes,,Private,,53.5128746031,-113.0926132199,
POINT (-113.31891082536478 53.53411941359065),Salisbury United Church,2 MISSION ST,780-467-7310,http://www.salisburyunited.ca/,Church,Religious organizations,Religious organizations,Other services (except public administration),813110,Yes,2379,Institutional,,53.5341194136,-113.3189108254,
POINT (-113.297141106072 53.55103151109742),Strathcona County Citizens on Patrol Society,911 BISON WY,780-449-0164,http://www.sccops.ca,,Other municipal protective services,Municipal protective services,Public administration,913190,Yes,,Private,,53.5510315111,-113.2971411061,Yes
POINT (-113.29410420038333 53.543383086834886),Urban Lasers & Aesthetics,"204, 85 CRANFORD WY",780-464-0335,http://www.urbanlasers.ca,,Other personal care services,Personal care services,Other services (except public administration),812190,Yes,,Private,,53.5433830869,-113.2941042004,Yes
POINT (-113.296821593728 53.46094131531447),Spronke & Sons Homes,52040 RNG RD 232,780-464-1400,,,,,,,Yes,,Private,,53.4609413153,-113.2968215937,
POINT (-113.27451324553058 53.45453643780519),Epic Construction Ltd.,23112 TWP RD 520,780-467-1457,,,Janitorial services (exc. window cleaning),Services to buildings & dwellings,"Administrative and support, waste management and remediation services",561722,Yes,2142,Private,,53.4545364378,-113.2745132455,
POINT (-113.29414493573846 53.527295830597375),Kumon Math and Reading Centre - Sherwood Park- Park Centre & Hotel,2016 SHERWOOD DR,780-570-5280,http://www.kumon.ca/sherwood-park,,All other schools & instruction,Other schools & instruction,Educational services,611690,Yes,,Private,,53.5272958306,-113.2941449357,Yes
POINT (-113.30814937534504 53.529764034489865),Broadmoor Public Golf Course,2100 OAK ST,780-467-7055,http://www.thebroadmoor.ca/,,Golf courses & country clubs,Other amusement & recreation industries,"Arts, entertainment and recreation",713910,Yes,,Private,,53.5297640345,-113.3081493753,
POINT (-113.32374287888217 53.55612345575101),Trimac Transportation Services Inc,226 PETROLEUM WY,780-417-5455,http://www.trimac.com,,"Bulk liquids trucking, long distance",Specialized freight trucking,Transportation and warehousing 48,484231,Yes,11700,Private,,53.5561234558,-113.3237428789,
POINT (-113.3233640535625 53.535171110115286),Performance Agencies Inc.,"217, 9 CHIPPEWA RD",780-449-5501,http://www.performanceagencies.com,,Investment advice,Other financial investment activities,Finance and insurance,523930,Yes,3057,Private,,53.5351711101,-113.3233640536,
POINT (-113.34720879880688 53.567055626010955),Specialized Metal Products Ltd,11410 2 ST,780-410-9940,,,All other misc. fabricated metal product mfg.,Other fabricated metal product mfg.,Manufacturing 33,332999,Yes,6318,Private,,53.567055626,-113.3472087988,
POINT (-113.32255902595683 53.56712822444432),C.B. City Communications Inc.,26 STRATHMOOR DR,780-416-0286,http://www.cbcity.ca,,,,,443110,Yes,,Private,,53.5671282245,-113.322559026,
POINT (-113.26264717610024 53.546408224294666),Good News Moravian Church,2 PRIMROSE BLVD,780-467-0337,http://www.goodnewschurch.ca/,,Religious organizations,Religious organizations,Other services (except public administration),813110,Yes,2088,Institutional,,53.5464082243,-113.2626471761,
POINT (-113.26264717610024 53.546408224294666),The Learning Safari Preschool,2 PRIMROSE BLVD,780-410-0940,http://www.thelearningsafari.com,,Child day-care services,Child day-care services,Health care and social assistance,624410,Yes,,Private,,53.5464082243,-113.2626471761,
POINT (-112.97493743841787 53.55825424194075),Canada Pump And Power (CPP) Corporation,53113 RNG RD 211,780-922-1178,,,,,,,Yes,7007,Private,,53.558254242,-112.9749374384,
POINT (-113.32555244360637 53.53774779531351),Alana Kohlman Professional Corporation,"168, 150 CHIPPEWA RD",780-416-9544,http://www.akohlman.ca,,Offices of accountants,"Accounting, tax prep. & bookkeeping services","Professional, scientific and technical services",541212,Yes,,Private,,53.5377477953,-113.3255524436,
POINT (-113.29446099000228 53.51426341115276),Sherwood Park Electrolysis Institute,"42, 48 BRENTWOOD BLVD",780-464-0405,http://Www.sherwoodparkelectrolysis.ca/en/,,Other personal care services,Personal care services,Other services (except public administration),812190,Yes,,Private,,53.5142634112,-113.29446099,
POINT (-113.32287499232511 53.53618608918452),Realty Executives - Devonshire,"101, 37 ATHABASCAN AV",780-464-7700,http://www.realtyexecutivedevonshire.ca,,Offices of real estate brokers,Offices of real estate agents & brokers,Real estate and rental and leasing,531212,Yes,,Private,,53.5361860892,-113.3228749923,Yes
POINT (-113.29465484610459 53.52356719946617),St Thomas Anglican Church,4A RAVEN DR,780-467-5730,http://www.sttomsherwoodpark.com/,,Religious organizations,Religious organizations,Other services (except public administration),813110,Yes,2788,Institutional,,53.5235671995,-113.2946548461,
POINT (-112.97684478818184 53.67260742184016),Greg & Cathy Burnett,54302 RNG RD 211,780-992-3117,,,"Beef cattle ranching & farming, inc. feedlots",Cattle ranching & farming,"Agriculture, forestry, fishing and hunting",112110,Yes,,Private,,53.6726074219,-112.9768447882,
POINT (-113.30325572110901 53.54519672312587),Advanced Hair & Skin Surgery,"113, 501 BETHEL DR",780-416-8999,http://www.drvanceelliott.com,,Offices of physicians,Offices of physicians,Health care and social assistance,621110,Yes,,Private,,53.5451967231,-113.3032557211,
POINT (-113.29474209818322 53.54338172375829),Tailormade Wellness Clinic,"200, 85 CRANFORD WY",780-464-5220,,,Offices of chiropractors,Offices of other health practitioners,Health care and social assistance,621310,Yes,,Private,,53.5433817238,-113.2947420982,
POINT (-113.32376098609103 53.53614807096223),Design North Landscape Architecture Inc,77 CHIPPEWA RD,780-417-9596,http://dnla.ca/contact-us/,,Landscape architectural services,"Architectural, engineering & related services","Professional, scientific and technical services",541320,Yes,1184,Private,,53.536148071,-113.3237609861,
POINT (-113.32886314987736 53.53714538406262),Double L Towing,113 CREE RD,780-467-7795,http://www.doubleltowing.com,,Motor vehicle towing,Support activities for road transportation,Transportation and warehousing 48,488410,Yes,,Private,,53.5371453841,-113.3288631499,Yes
POINT (-113.30932020966125 53.54333608852075),Eastside Hangers Inc.,"20, 161 BROADWAY BLVD",780-416-2729,http://www.eastsidehangers.com,,Residential building construction,Residential building construction,Construction,236110,Yes,,Private,,53.5433360885,-113.3093202097,
POINT (-113.29532793681251 53.59680852242144),Lockerbie Rentals Limited,53367 RNG RD 232,780-416-5700,,,,,,,Yes,9871,Private,,53.5968085224,-113.2953279368,
POINT (-113.29830169771598 53.54954147310748),Heartland Housing Foundation,914 BISON WY,780-400-3500,,,Services for the elderly & disabled persons,Individual & family services,Health care and social assistance,624120,Yes,3703,Private,,53.5495414731,-113.2983016977,
POINT (-113.33070739388431 53.563832237904464),AirLiquide Canada,170 STRATHMOOR WY,780-992-1077,http://www.airliquide.com,,Industrial gas mfg.,Basic chemical mfg.,Manufacturing 32,325120,Yes,,Private,,53.5638322379,-113.3307073939,
POINT (-113.29533386231827 53.52496337952879),Advico Financial Planning Group,2004 SHERWOOD DR,780-640-3322,http://www.advico.ca,,Investment advice,Other financial investment activities,Finance and insurance,523930,Yes,7040,Private,,53.5249633795,-113.2953338623,Yes
POINT (-113.02633666986245 53.554676056475735),P. N. K . Transportation Services Ltd.,53074 RNG RD 213,780-922-5487,,,School & employee bus transportation,School & employee bus transportation,Transportation and warehousing 48,485410,Yes,6652,Private,,53.5546760565,-113.0263366699,
POINT (-113.21988677951238 53.61547088631198),Country Healthworks for Women,53511 RNG RD 225,780-464-4495,,,Other personal care services,Personal care services,Other services (except public administration),812190,Yes,,Private,,53.6154708863,-113.2198867795,
POINT (-113.32748377085854 53.53937406970907),Garnet Instruments Ltd.,286 KASKA RD,780-467-1010,http://www.garnetinstruments.com,,All other general-purpose machinery mfg.,Other general-purpose machinery mfg.,Manufacturing 33,333990,Yes,4004,Private,,53.5393740697,-113.3274837709,
POINT (-113.22079467898698 53.482589722455884),Anna Len Professional Realty Group,22477 TWP RD 522,780-893-8935,,,Offices of real estate brokers,Offices of real estate agents & brokers,Real estate and rental and leasing,531212,Yes,1518,Private,,53.4825897225,-113.220794679,
POINT (-113.04754638690515 53.55112838662008),Rising Star Consulting Ltd,53057 RNG RD 214,587-783-6050,,,,,,,Yes,1389,Private,,53.5511283866,-113.0475463869,
POINT (-113.12241363549755 53.488338470040325),ABC Kern Building Systems Ltd,52231 RNG RD 221,780-922-6343,,,Commercial & inst. building construction,Non-residential building construction,Construction,236220,Yes,1851,Private,,53.4883384701,-113.1224136355,
POINT (-113.32287499232511 53.53618608918452),LorenzTeam Property Marketing Group,"101, 37 ATHABASCAN AV",780-640-1150,http://www.lorenzteam.com,,Real estate agents,Offices of real estate agents & brokers,Real estate and rental and leasing,531211,Yes,,Private,,53.5361860892,-113.3228749923,Yes
POINT (-113.33167702771819 53.53866315651081),Canada Power Holdings (CPH) Ltd,411 KASKA RD,780-467-2400,http://www.canadapower.ca,,Electrical & other wiring contractors,Building equipment contractors,Construction,238210,Yes,5500,Private,,53.5386631565,-113.3316770277,
POINT (-112.94982147295192 53.48040771507459),Rescue 100 Foundation,52165 RNG RD 210,780-464-9988,,,Horse & other equine production,Other animal production,"Agriculture, forestry, fishing and hunting",112920,Yes,,Private,,53.4804077151,-112.949821473,
POINT (-113.33069515152127 53.54702811518853),Sherwood Park Hyundai,41 AUTOMALL RD,780-410-2450,http://www.sphyundai.com,Auto Sales,New car dealers,Automobile dealers,Retail trade 44,441110,Yes,5617,Private,,53.5470281152,-113.3306951515,Yes
POINT (-113.07252502460506 53.5524749760911),Frank's Custom Woodcraft,53063 RNG RD 215,780-922-4161,,,,,,,Yes,2422,Private,,53.5524749761,-113.0725250246,
POINT (-112.92794036943849 53.42469406121416),Kawtikh Retreat Ltd.,51380A RNG RD 205,780-922-5168,http://www.kawtikh.com,,RV parks & campgrounds,RV parks & recreational camps,Accommodation and food services,721211,Yes,3240,Private,,53.4246940612,-112.9279403694,
POINT (-113.30964824808423 53.54304310818085),Baseline Insurance Inc.,"30, 171 BROADWAY BLVD",780-410-1013,http://www.baselineinsurance.ca,,Insurance agencies & brokerages,"Agencies, brokerages & other insurance act.",Finance and insurance,524210,Yes,,Private,,53.5430431082,-113.3096482481,Yes
POINT (-113.29444984108645 53.51540886040203),Maplewood Liquor,52 BRENTWOOD BLVD,780-417-9588,,,"Beer, wine & liquor stores","Beer, wine & liquor stores",Retail trade 44,445310,Yes,4725,Private,,53.5154088604,-113.2944498411,
POINT (-113.33043383809257 53.538400839972795),Mushrooms & More Quality Food Products Ltd.,327 KASKA RD,780-467-7493,http://www.mushroomsandmore.com,,Grocery (exc. convenience) stores,Grocery stores,Retail trade 44,445110,Yes,2637,Private,,53.53840084,-113.3304338381,
POINT (-113.18524932906695 53.39522552468936),Spruce Hill Tree Movers Ltd.,22341 TWP RD 512,780-922-2030,,,Support activities for forestry,Support activities for forestry,"Agriculture, forestry, fishing and hunting",115310,Yes,,Private,,53.3952255247,-113.1852493291,
POINT (-113.32245004146125 53.56687644418337),Super 8 Sherwood Park,26 STRATHMOOR DR,780-464-1000,http://www.the.super8.com/roadking39490,Hotel,Hotels,Traveller accommodation,Accommodation and food services,721111,Yes,,Private,,53.5668764442,-113.3224500415,Yes
POINT (-113.29284943063604 53.576041293504005),Quantum Murray - LP,15 TURBO DR,780-467-8881,http://www.quantummurray.com,,Site preparation contractors,Other specialty trade contractors,Construction,238910,Yes,,Private,,53.5760412935,-113.2928494306,
POINT (-113.18318176328731 53.45335006746962),Sandridge Stables,22335 TWP RD 520,780-922-7383,,,Horse & other equine production,Other animal production,"Agriculture, forestry, fishing and hunting",112920,Yes,,Private,,53.4533500675,-113.1831817633,
POINT (-113.32747432054639 53.539263615176786),Sherwood Park Vacuums,284 KASKA RD,780-467-0671,,,Appliance r&m,Personal & household goods r&m,Other services (except public administration),811412,Yes,1206,Private,,53.5392636152,-113.3274743205,
POINT (-113.19795227024095 53.40406417812433),Birchwood Poultry Ltd,51242 RNG RD 224,780-416-5529,,,All other poultry production,Poultry & egg production,"Agriculture, forestry, fishing and hunting",112399,Yes,,Private,,53.4040641781,-113.1979522702,
POINT (-113.32487649475611 53.5381944750062),Execu Graphx Inc.,"126, 150 CHIPPEWA RD",780-467-6729,,,Commercial screen printing,Printing & related support activities,Manufacturing 32,323113,Yes,2067,Private,,53.538194475,-113.3248764948,
POINT (-113.31788870698364 53.54540850762611),Troika Foods (2000) Ltd,"14, 41 BROADWAY BLVD",780-467-1121,http://www.troikafoods.com,,All other food mfg.,Other food mfg.,Manufacturing 31,311990,Yes,,Private,,53.5454085076,-113.317888707,
POINT (-113.25385284413059 53.367645263550784),Fiberglass King Ltd,23024 TWP RD 510,780-919-6909,,,,,,,Yes,11259,Private,,53.3676452636,-113.2538528441,
POINT (-113.32287499232511 53.53618608918452),Carla Renneberg - MaxWell Devonshire,"101, 37 ATHABASCAN AV",780-819-0025,http://www.RealtyFinder.ca,Residential sales and purchases in Strathcona County and surrounding area. I also specialize in Country Residential Acreages. Serving our community for over 15 years.,Real estate agents,Offices of real estate agents & brokers,Real estate and rental and leasing,531211,Yes,,Private,,53.5361860892,-113.3228749923,Yes
POINT (-113.27078247062754 53.49420547550064),Victory Baptist Church of Sherwood Park,52261 RNG RD 231,780-467-2636,http://www.victorybaptistsherwoodpark.ca/,,Religious organizations,Religious organizations,Other services (except public administration),813110,Yes,2734,Institutional,,53.4942054755,-113.2707824706,
POINT (-113.32579803488838 53.53964233366379),Dynamysk Automation Ltd.,184 KASKA RD,780-570-8150,http://www.dynamysk.com,,All other pipeline transportation,Other pipeline transportation,Transportation and warehousing 48,486990,Yes,,Private,,53.5396423337,-113.3257980349,
POINT (-113.27420222682545 53.5526628587695),Lakeland Ridge School,101 CRIMSON DR,780-416-9018,http://lakelandridge.ca/,Elk Island Public Schools - Elementary Junior High School (K-9),Elementary & secondary schools,Elementary & secondary schools,Educational services,611110,Yes,14198,Institutional,,53.5526628588,-113.2742022268,
POINT (-113.12312316812549 53.75372314490047),Hydro Scotford Inc.,55243 RNG RD 220,780-992-0100/587-226-6140,http://www.hydroscotford.com,,Machine shops,"Machine shops, turned product & related mfg.",Manufacturing 33,332710,Yes,,Private,,53.7537231449,-113.1231231681,
POINT (-112.97516631996544 53.604011535876516),Brookville Welding,53423 RNG RD 211,780-992-0864,,,"General trucking, long distance, truck-load",General freight trucking,Transportation and warehousing 48,484121,Yes,1345,Private,,53.6040115359,-112.97516632,
POINT (-113.32265385659262 53.56717218297194),Smitty's Family Restaurant,26 STRATHMOOR DR,587-269-1188,,Restaurant,Full-service restaurants,Full-serv. rest. & limited-serv. eating place,Accommodation and food services,722511,Yes,,Private,,53.567172183,-113.3226538566,
POINT (-113.14863586295392 53.542491912641225),Three Seasons Landscaping Ltd.,53008 RNG RD 222,780-922-4619,http://www.threeseasonslandscaping.ca,,Landscaping services,Services to buildings & dwellings,"Administrative and support, waste management and remediation services",561730,Yes,,Private,,53.5424919127,-113.148635863,
POINT (-112.87844085714327 53.38774108879055),Lincoln Shearing,51134 RNG RD 203,780-662-2486,,,Oil & gas pipeline & related struct. const.,Utility system construction,Construction,237120,Yes,1701,Private,,53.3877410888,-112.8784408571,
POINT (-113.14501953076612 53.376102447787254),Northern Bear Golf Club,51055 RNG RD 222,780-922-2327,http://www.northernbeargolf.com,,Golf courses & country clubs,Other amusement & recreation industries,"Arts, entertainment and recreation",713910,Yes,17147,Private,,53.3761024478,-113.1450195308,
POINT (-113.29533386231827 53.52496337952879),Strathcona Commercial Realty,2004 SHERWOOD DR,780-417-5540,,,Real estate agents,Offices of real estate agents & brokers,Real estate and rental and leasing,531211,Yes,1518,Private,,53.5249633795,-113.2953338623,
POINT (-113.26861572230831 53.438323975009645),Can-Traffic Services Ltd,51475 RNG RD 231,780-449-4059,https://www.can-traffic.ca/,,Other support activities for road transport,Support activities for road transportation,Transportation and warehousing 48,488490,Yes,,Private,,53.438323975,-113.2686157223,
POINT (-113.3242385475461 53.53441780663733),Acupuncture Care Holistic Centre,"119, 52 SIOUX RD",780-416-2828,http://www.acucare.ca,,Other personal care services,Personal care services,Other services (except public administration),812190,Yes,,Private,,53.5344178067,-113.3242385475,Yes
POINT (-113.30719235561996 53.523253095586895),GSD Management & Accounting Ltd,1606 SHERWOOD DR,780-467-6044,,,Offices of accountants,"Accounting, tax prep. & bookkeeping services","Professional, scientific and technical services",541212,Yes,1184,Private,,53.5232530956,-113.3071923556,
POINT (-113.37348175000433 53.566425323169426),Sunridge Ski Area/Calido Recreation Management Inc.,10980 17 ST,780-449-6555,http://www.sunridgeskiarea.com,,Skiing facilities,Other amusement & recreation industries,"Arts, entertainment and recreation",713920,Yes,,Private,,53.5664253232,-113.37348175,
POINT (-113.11607360785442 53.45267868017354),Alberta Pig Company Ltd,22059 TWP RD 520,780-922-0032,,,Office administrative services,Office administrative services,"Administrative and support, waste management and remediation services",561110,Yes,1324,Private,,53.4526786802,-113.1160736079,
POINT (-113.05897522000839 53.3964424128931),Artisan Mobile Upholstery Ltd.,21432 HWY 14,780-297-5123,http://www.artisanmobileupholstery.ca,,All other support services,Other support services,"Administrative and support, waste management and remediation services",561990,Yes,,Private,,53.3964424129,-113.05897522,
POINT (-113.31285110301864 53.54329353455118),Meyer's Insurance Ltd,"10, 130 BROADWAY BLVD",780-467-5048,http://www.dougsettle.com/www.meyersinsurance.com,,Insurance agencies & brokerages,"Agencies, brokerages & other insurance act.",Finance and insurance,524210,Yes,7363,Private,,53.5432935346,-113.312851103,Yes
POINT (-112.87924957295182 53.46229171838163),Dean & Cathy Komant,52042 RNG RD 203,780-922-3110,,,"Beef cattle ranching & farming, inc. feedlots",Cattle ranching & farming,"Agriculture, forestry, fishing and hunting",112110,Yes,,Private,,53.4622917184,-112.879249573,
POINT (-113.32868343544138 53.54742598820092),Sherwood Honda,30 AUTOMALL RD,780-417-0005,http://www.sherwoodhonda.ca,Auto Sales,New car dealers,Automobile dealers,Retail trade 44,441110,Yes,41106,Private,,53.5474259882,-113.3286834354,Yes
POINT (-113.32955932545475 53.54023742679364),T.C  Backhoe & Directional Drilling,302 CREE RD,780-467-1367,http://www.tcbackhoe.com,,Electrical & other wiring contractors,Building equipment contractors,Construction,238210,Yes,30031,Private,,53.5402374268,-113.3295593255,Yes
POINT (-113.22071075397162 53.56887435931392),Greenskeepers Inc,53173 RNG RD 225,780-417-5296,http://www.greenskeepers.ca,,Landscaping services,Services to buildings & dwellings,"Administrative and support, waste management and remediation services",561730,Yes,2960,Private,,53.5688743593,-113.220710754,Yes
POINT (-113.28492899980783 53.575437168093025),Edmonton Railway Contractors Ltd.,50 LIBERTY RD,780-449-5621,,,,,,482110,Yes,1033,Private,,53.5754371681,-113.2849289998,
POINT (-113.3230047238759 53.53891059741261),Broadmoor Auto Body,101 KASKA RD,780-464-3664,http://www.broadmoorautobody.com,,"Automotive body, paint & interior r&m",Automotive r&m,Other services (except public administration),811121,Yes,,Private,,53.5389105974,-113.3230047239,Yes
POINT (-113.0978622443524 53.516651154298636),Cleaning By Jack Inc.,52425 RNG RD 220,780-435-8977,,,Carpet & upholstery cleaning services,Services to buildings & dwellings,"Administrative and support, waste management and remediation services",561740,Yes,,Private,,53.5166511543,-113.0978622444,
POINT (-113.32710266171186 53.55936431910938),"DEVITT, DIV OF",301 STREAMBANK AV,780-449-6688,,,"General trucking, long distance, truck-load",General freight trucking,Transportation and warehousing 48,484121,Yes,27254,Private,,53.5593643191,-113.3271026617,
POINT (-113.32571931938956 53.53868564054697),Holtzman Hunter-Moffat LLP,"215, 9 CHIPPEWA RD",780-464-3560,http://www.holtzmanllp.com,,Offices of accountants,"Accounting, tax prep. & bookkeeping services","Professional, scientific and technical services",541212,Yes,,Private,,53.5386856406,-113.3257193194,Yes
POINT (-113.12214660529277 53.61990737913277),Ardrossan Greenhouses & Garden Centre.,53533 RNG RD 221,780-922-3243,,,Nursery & garden centres,Lawn & garden equipment & supplies stores,Retail trade 44,444220,Yes,,Private,,53.6199073792,-113.1221466053,
POINT (-113.32806396503308 53.53532028247469),County Clothes-Line,201 ATHABASCAN AV,780-464-7786,http://www.countyclothes.line.com,,Used merchandise stores,Used merchandise stores,Retail trade 45,453310,Yes,,Private,,53.5353202825,-113.328063965,Yes
POINT (-113.12258911078955 53.641563416080686),Alberta Coach & Chassis Ltd,54071 RNG RD 221,780-998-2736,,,General automotive repair,Automotive r&m,Other services (except public administration),811111,Yes,1184,Private,,53.6415634161,-113.1225891108,
POINT (-113.37069702154791 53.5564308167822),Chemroutes Corp,1720 106 AV,780-417-8812,,,"All other prof., scientific & tech. services","Other prof., scientific & technical services","Professional, scientific and technical services",541990,Yes,,Private,,53.5564308168,-113.3706970215,
POINT (-113.31132492602993 53.54267580912019),Investment Planning Counsel,"224, 160 BROADWAY BLVD",780-416-4190,http://www.enhancedwealth.ca/www.partnersinplanning.com,,Investment advice,Other financial investment activities,Finance and insurance,523930,Yes,2863,Private,,53.5426758091,-113.311324926,
POINT (-113.22286987325622 53.434543610048294),Tremm Construction Ltd.,51454 RNG RD 225,780-473-3070,,,Poured concrete foundation contractors,"Foundation, structure & related contractors",Construction,238110,Yes,,Private,,53.4345436101,-113.2228698733,
POINT (-112.96439361630182 53.600128174485334),Jody Hjelsrvold,21042 TWP RD 534,780-998-4973,,,"Beef cattle ranching & farming, inc. feedlots",Cattle ranching & farming,"Agriculture, forestry, fishing and hunting",112110,Yes,,Private,,53.6001281745,-112.9643936163,
POINT (-113.0992431644604 53.42620849601606),Canadian Sign Management Corp,51412 RNG RD 220,780-469-9011,,,,,,,Yes,1345,Private,,53.426208496,-113.0992431645,
POINT (-113.37421731577392 53.54679472906242),Scamp Transport Ltd (Edmonton),10260 21 ST,780-449-0006,,,"General freight trucking, local",General freight trucking,Transportation and warehousing 48,484110,Yes,,Private,,53.5467947291,-113.3742173158,
POINT (-113.02682495021598 53.589065551747005),Show Stopppers Arabians,53322 RNG RD 213,780-998-1930,,,Horse & other equine production,Other animal production,"Agriculture, forestry, fishing and hunting",112920,Yes,,Private,,53.5890655518,-113.0268249502,
POINT (-113.37284088127888 53.55583953910159),Calido Software Incorporated,10980 17 ST,780-973-3131,,,,,,,Yes,2056,Private,,53.5558395391,-113.3728408813,
POINT (-113.04860687336684 53.581798553028094),Maribec Leather Products,53261 RNG RD 214,780-998-5480,,,Horse & other equine production,Other animal production,"Agriculture, forestry, fishing and hunting",112920,Yes,,Private,,53.581798553,-113.0486068734,
POINT (-113.33126831129314 53.53633499108935),Hill Realty Inc.,"144, 363 SIOUX RD",780-449-5622,http://www.members.shaw.ca/hillrealty,,Offices of real estate brokers,Offices of real estate agents & brokers,Real estate and rental and leasing,531212,Yes,,Private,,53.5363349911,-113.3312683113,Yes
POINT (-113.31305657660823 53.51970618146204),Ecole Campbelltown Elementary School,271 CONIFER ST,780-467-5143,http://campbelltown.ca/,Elk Island Public Schools - French Immersion Elementary School (K-6),Elementary & secondary schools,Elementary & secondary schools,Educational services,611110,Yes,11926,Institutional,,53.5197061815,-113.3130565766,
POINT (-113.12214660529277 53.61990737913277),Friends of Blackfoot Society,53533 RNG RD 221,780-922-3243,,,Other individual & family services,Individual & family services,Health care and social assistance,624190,Yes,2648,Private,,53.6199073792,-113.1221466053,
POINT (-113.17187500001432 53.53492355263821),National Upholstery & Refinishing Inc.,52547 RNG RD 223,780-467-6435/922-6799,,,Reupholstery & furniture repair,Personal & household goods r&m,Other services (except public administration),811420,Yes,,Private,,53.5349235527,-113.171875,
POINT (-113.00183105505594 53.562744140761566),Cedar Crest Farms,53140 RNG RD 212,780-922-2604,,,Horse & other equine production,Other animal production,"Agriculture, forestry, fishing and hunting",112920,Yes,,Private,,53.5627441408,-113.0018310551,
POINT (-113.23821258444207 53.48211288506089),"Osborne, J.W. And Associates Ltd",22557 TWP RD 522,780-467-8967,http://www.jwo.ca,,Land subdivision,Land subdivision,Construction,237210,Yes,2605,Private,,53.4821128851,-113.2382125844,
POINT (-113.29507875493113 53.539504809576925),Church of Jesus Christ of Latter-Day Saints,2090 SHERWOOD DR,780-464-1001,https://www.mormon.org/,,Religious organizations,Religious organizations,Other services (except public administration),813110,Yes,1356,Institutional,,53.5395048096,-113.2950787549,
POINT (-113.1036453253433 53.48328399680445),Jean's High Cotton Stables,22018 TWP RD 522,780-922-1262,,,Fitness & recreational sports centres,Other amusement & recreation industries,"Arts, entertainment and recreation",713940,Yes,2034,Private,,53.4832839968,-113.1036453253,
POINT (-113.3317375011422 53.53621358242143),Springwood Business Centre,363 SIOUX RD,780-464-2115,,,Business service centres,Business support services,"Administrative and support, waste management and remediation services",561430,Yes,1518,Private,,53.5362135824,-113.3317375011,
POINT (-113.14934539742974 53.376541137906116),Bar W Electric,51058 RNG RD 222,780-922-6972,,,Electrical & other wiring contractors,Building equipment contractors,Construction,238210,Yes,1033,Private,,53.3765411379,-113.1493453974,
POINT (-113.19628143254452 53.54513549784135),Colin Knott,53021 RNG RD 224,780-922-0330,,,"Beef cattle ranching & farming, inc. feedlots",Cattle ranching & farming,"Agriculture, forestry, fishing and hunting",112110,Yes,,Private,,53.5451354979,-113.1962814325,
POINT (-113.26953744938369 53.52547783547316),Bev Facey Community High School,99 COLWILL BLVD,780-467-0044,http://bevfacey.ca/,Elk Island Public Schools - High School (10-12),Elementary & secondary schools,Elementary & secondary schools,Educational services,611110,Yes,3294,Institutional,,53.5254778355,-113.2695374494,
POINT (-113.33101639619032 53.53692516841219),Ultimate Woodwork Ltd.,469 SIOUX RD,780-449-0632,,,Wood kitchen cabinet & counter top mfg.,Household & inst. furniture & cabinet mfg.,Manufacturing 33,337110,Yes,,Private,,53.5369251684,-113.3310163962,
POINT (-113.29138423039565 53.57442643785028),Allied Group,90 TURBO DR,780-464-7774,http://www.allied-grp.com,,,,,211110,Yes,,Private,,53.5744264379,-113.2913842304,
POINT (-113.37569427404682 53.543972014361835),Two Engines Hd Repair Ltd,10260 21 ST,780-464-6445,,,Commercial & ind'l mach. & equip. r&m,Commercial & ind'l mach. & equip. r&m,Other services (except public administration),811310,Yes,1184,Private,,53.5439720144,-113.375694274,
POINT (-113.19841003444289 53.4777908327556),Eyford Equestrian,52152 RNG RD 224,780-922-5419,,,,,,,Yes,1184,Private,,53.4777908328,-113.1984100344,
POINT (-113.38771820012292 53.53996658317017),LPG Loading Terminal,3011 101 AV,780-449-8221,,,,,,,Yes,18148,Private,,53.5399665832,-113.3877182001,
POINT (-113.3513136498205 53.568283285972036),Sil Industrial Minerals,305 116 AV,780-467-2627,http://www.sil.ab.ca,,Sand & gravel mining & quarrying,Non-metallic mineral mining & quarrying,"Mining, quarrying and oil and gas exraction",212323,Yes,,Private,,53.568283286,-113.3513136498,
POINT (-113.14864349409275 53.55463028009647),Ardrossan Vet Clinic,53074 RNG RD 222,780-922-3700,,,Veterinary services,"Other prof., scientific & technical services","Professional, scientific and technical services",541940,Yes,,Private,,53.5546302801,-113.1486434941,
POINT (-113.10652160673173 53.483375549012734),Fedorchuk Welding Ltd.,22026 TWP RD 522,780-922-5225,,,Commercial & ind'l mach. & equip. r&m,Commercial & ind'l mach. & equip. r&m,Other services (except public administration),811310,Yes,1184,Private,,53.483375549,-113.1065216067,
POINT (-113.32598877027056 53.53927612276155),Something Special Deli Foods Ltd.,224 KASKA RD,780-467-4448,,,"Fruit & vegetable canning, pickling & drying",Fruit & veg. preserving & specialty food mfg.,Manufacturing 31,311420,Yes,,Private,,53.5392761228,-113.3259887703,
POINT (-113.33146667428836 53.53620529225243),Toro Safety Consulting Development & Design Inc,"104, 363 SIOUX RD",780-464-8530,http://www.torosafety.com/,,Other scientific & technical consulting serv.,"Mgmt., scientific & technical consulting serv","Professional, scientific and technical services",541690,Yes,1184,Private,,53.5362052923,-113.3314666743,
POINT (-113.32547708750047 53.53864265987367),Jada Solutions (HSE) Inc.,"106, 150 CHIPPEWA RD",780-640-0883/780-640-0883,http://www.jadesolutions.ca,,Environmental consulting services,"Mgmt., scientific & technical consulting serv","Professional, scientific and technical services",541620,Yes,5834,Private,,53.5386426599,-113.3254770875,Yes
POINT (-113.07335662718616 53.441932677597094),Meadowlodge Bible Camp,51511 RNG RD 215,780-922-4242,,,,,,,Yes,1345,Private,,53.4419326776,-113.0733566272,
POINT (-113.32121303961227 53.556240700601926),Sherwood Ford,2540 BROADMOOR BLVD,780-449-3673,http://www.sherwoodford.ca,Auto Sales,New car dealers,Automobile dealers,Retail trade 44,441110,Yes,34471,Private,,53.5562407006,-113.3212130396,Yes
POINT (-113.02629089471827 53.58027648943295),Brian LaBine,53256 RNG RD 213,780-992-1529,,,"Beef cattle ranching & farming, inc. feedlots",Cattle ranching & farming,"Agriculture, forestry, fishing and hunting",112110,Yes,,Private,,53.5802764895,-113.0262908947,
POINT (-113.37029886178554 53.552342634122006),Gibsons Energy ULC Ltd,10534 17 ST,780-449-9350,http://www.gibsons.com,,,,,,Yes,16469,Private,,53.5523426341,-113.3702988618,
POINT (-113.19826507601667 53.649921416633006),Prairie Sunset Bed & Breakfast,54140 RNG RD 224,780-997-0551,http://www.prairiesunset.com,,Bed & breakfast,Traveller accommodation,Accommodation and food services,721191,Yes,,Private,,53.6499214167,-113.198265076,
POINT (-113.29291919683995 53.57769870476104),Dandy Oil Products Ltd,15 CHALLENGER CR,780-464-5864,,,"Bulk liquids trucking, long distance",Specialized freight trucking,Transportation and warehousing 48,484231,Yes,1378,Private,,53.5776987048,-113.2929191968,
POINT (-113.12155914266889 53.429382323954584),Allison Air Service,51401 RNG RD 221,780-922-1083,,,,,,,Yes,6114,Private,,53.429382324,-113.1215591427,
POINT (-113.07465362609645 53.70696639958911),Nickel City Safety,54530 RNG RD 215,780-998-1734,,,Other scientific & technical consulting serv.,"Mgmt., scientific & technical consulting serv","Professional, scientific and technical services",541690,Yes,,Private,,53.7069663996,-113.0746536261,
POINT (-113.32456936735144 53.53942116742254),Sylvan Learning Centre,176 CHIPPEWA RD,780-449-6110,,,All other schools & instruction,Other schools & instruction,Educational services,611690,Yes,5113,Private,,53.5394211674,-113.3245693674,Yes
POINT (-113.02604675223832 53.5077552798695),Preston Land and Livestock,52358 RNG RD 213,780-984-1782,,,"Beef cattle ranching & farming, inc. feedlots",Cattle ranching & farming,"Agriculture, forestry, fishing and hunting",112110,Yes,,Private,,53.5077552799,-113.0260467522,
POINT (-113.09983062756889 53.51647567723468),Romaniuk Heating & Air Conditioning Ltd.,52422 RNG RD 220,780-448-0076,,,"Plumbing, heating & ac contractors",Building equipment contractors,Construction,238220,Yes,,Private,,53.5164756773,-113.0998306276,Yes
POINT (-113.29415009254413 53.51423766207279),Chris Cicchini Registered Psychologist,"208, 48 BRENTWOOD BLVD",780-237-1323,,,Mental health practitioners (exc. physicians),Offices of other health practitioners,Health care and social assistance,621330,Yes,1184,Private,,53.5142376621,-113.2941500925,
POINT (-113.14222717270658 53.551692963000825),Discover and Learn Preschool,15 MAIN ST,780-993-5437,http://www.discoverandlearnpreschool.com,,Child day-care services,Child day-care services,Health care and social assistance,624410,Yes,,Private,,53.551692963,-113.1422271727,
POINT (-113.28908903235896 53.571792415134645),Warren Alloy Valve & Fitting Canada Ltd,172 TURBO DR,780-464-7774,http://www.allied-grp.com,,,,,211110,Yes,19999,Private,,53.5717924152,-113.2890890324,
POINT (-113.31075293835065 53.542585204078755),Sublime Wines,"104, 160 BROADWAY BLVD",780-467-9463,http://www.sublime-wines.com,,"Beer, wine & liquor stores","Beer, wine & liquor stores",Retail trade 44,445310,Yes,,Private,,53.5425852041,-113.3107529384,Yes
POINT (-113.31674957301374 53.54534530650696),Horizon Funeral Service,51 BROADWAY BLVD,780-416-8002,,,Funeral homes,Funeral services,Other services (except public administration),812210,Yes,2379,Private,,53.5453453065,-113.316749573,
POINT (-113.31120216505434 53.54277295357796),Body & Soul Day Spa,"128, 160 BROADWAY BLVD",780-417-1222,http://www.body-and-soul.ca,,Beauty salons,Personal care services,Other services (except public administration),812115,Yes,,Private,,53.5427729536,-113.3112021651,Yes
POINT (-113.29418381819617 53.527593327684954),Liquor Nation,2016 SHERWOOD DR,780-467-1242,,,"Beer, wine & liquor stores","Beer, wine & liquor stores",Retail trade 44,445310,Yes,1098,Private,,53.5275933277,-113.2941838182,
POINT (-113.30699157785278 53.52696609509996),Sherwood Park Arena Sports Centre,2015 OAK ST,780-467-2202,https://www.strathcona.ca/departments/recreation-parks-and-culture/recreation-centres/sherwood-park-arena-and-sports-centre/,,Sports stadiums & other presenters with fac.,"Promoters of performing arts, sports, etc.","Arts, entertainment and recreation",711319,Yes,3046,Private,,53.5269660951,-113.3069915779,
POINT (-113.3095318194896 53.54340496588949),Glen A. Pearce,"16, 161 BROADWAY BLVD",780-970-3691,,,Offices of accountants,"Accounting, tax prep. & bookkeeping services","Professional, scientific and technical services",541212,Yes,,Private,,53.5434049659,-113.3095318195,
POINT (-113.29399871710648 53.586921691796455),Arrow Reload Systems Inc,53309 RNG RD 232,780-464-4640,,,Support activities for rail transportation,Support activities for rail transportation,Transportation and warehousing 48,488210,Yes,15479,Private,,53.5869216918,-113.2939987171,
POINT (-113.37291717550616 53.51895523097565),Boden Fabricating & Metal Products Ltd,1919 84 AV,780-449-5000,http://www.bodenfab.com,,All other misc. fabricated metal product mfg.,Other fabricated metal product mfg.,Manufacturing 33,332999,Yes,,Private,,53.518955231,-113.3729171755,
POINT (-113.28596101350726 53.574846713052125),Park Paving Ltd,61 LIBERTY RD,780-400-1305,,,"Highway, street & bridge construction","Highway, street & bridge construction",Construction,237310,Yes,,Private,,53.5748467131,-113.2859610135,
POINT (-113.30456542924055 53.47485732995571),Graylake Holsteins Ltd,23231 TWP RD 521A,780-467-8985,,,Oilseed (exc. soybean) farming,Oilseed & grain farming,"Agriculture, forestry, fishing and hunting",111120,Yes,8159,Private,,53.47485733,-113.3045654292,
POINT (-113.28661346397715 53.45440292400731),Beckwich Veterinary Clinic,23152 TWP RD 520,780-464-1240,,,Veterinary services,"Other prof., scientific & technical services","Professional, scientific and technical services",541940,Yes,,Private,,53.454402924,-113.286613464,
POINT (-113.32592464789693 53.53773980612247),Concord Consulting Corporation,"158, 150 CHIPPEWA RD",780-464-6688,http://www.concordconsulting.com,,Administrative & gen. mgmt. consulting serv.,"Mgmt., scientific & technical consulting serv","Professional, scientific and technical services",541611,Yes,,Private,,53.5377398061,-113.3259246479,
POINT (-113.28325652994673 53.5360374450768),Happy Day Before and After School Care,109 GEORGIAN WY,780-912-1167,https://jv.eics.ab.ca/about/before-and-after-school-care,Before and After School Care,Child day-care services,Child day-care services,Health care and social assistance,624410,Yes,,Private,,53.5360374451,-113.2832565299,
POINT (-112.99939727804843 53.58786010649944),4K Land & Cattle,53315 RNG RD 212,780-998-7389,,,"Beef cattle ranching & farming, inc. feedlots",Cattle ranching & farming,"Agriculture, forestry, fishing and hunting",112110,Yes,,Private,,53.5878601065,-112.999397278,
POINT (-113.22251892129862 53.45816040021566),"Crosdale, Samantha Dvm",52024 RNG RD 225,780-467-3765,,,Veterinary services,"Other prof., scientific & technical services","Professional, scientific and technical services",541940,Yes,1184,Private,,53.4581604002,-113.2225189213,
POINT (-113.10901641773411 53.482139586603516),Stonehedge Inc.,22035 TWP RD 522,780-984-8597,,,Landscaping services,Services to buildings & dwellings,"Administrative and support, waste management and remediation services",561730,Yes,2960,Private,,53.4821395866,-113.1090164177,
POINT (-113.37545375679609 53.54538412711929),Keg River Chemical Corporation,10350 21 ST,780-417-2463/780-417-8440,,,Mixed fertilizer mfg.,"Pesticide, fertilizer & other agr. chem. mfg.",Manufacturing 32,325314,Yes,24025,Private,,53.5453841271,-113.3754537568,
POINT (-113.27017211996214 53.4284667967107),Kilford's Water Service Ltd.,51423 RNG RD 231,780-467-7169,,,"Bulk liquids trucking, local",Specialized freight trucking,Transportation and warehousing 48,484221,Yes,4672,Private,,53.4284667967,-113.27017212,
POINT (-113.3028560677135 53.54511315617775),Driver Check Clinics,"235, 501 BETHEL DR",780-464-5547,http://www.drivercheck.ca,,Offices of physicians,Offices of physicians,Health care and social assistance,621110,Yes,,Private,,53.5451131562,-113.3028560677,
POINT (-113.14724283298209 53.56039076206645),Ardrossan Automotive & Tire Centre Inc.,53123 RNG RD 222,780-922-2012,,,General automotive repair,Automotive r&m,Other services (except public administration),811111,Yes,,Private,,53.5603907621,-113.147242833,
POINT (-113.32121452095859 53.56245976154125),Cascade Carriers LP,2700 BROADMOOR BLVD,780-467-7736,http://www.cascadecarriers.com,,"General trucking, long distance, truck-load",General freight trucking,Transportation and warehousing 48,484121,Yes,38933,Private,,53.5624597616,-113.321214521,
POINT (-113.32296427339679 53.5356999387414),Dr.Patti Farrell & Associates Medical Clinic,"105, 47 ATHABASCAN AV",780-449-4119,,,Offices of physicians,Offices of physicians,Health care and social assistance,621110,Yes,,Private,,53.5356999388,-113.3229642734,
POINT (-113.32434081976838 53.56008529689625),Diversified Transportation Ltd,200 STREAMBANK AV,,,,Charter bus industry,Charter bus industry,Transportation and warehousing 48,485510,Yes,15963,Private,,53.5600852969,-113.3243408198,Yes
POINT (-113.27221679670704 53.414878845595695),Clover Leaf Stables Equestrian Centre Inc,51328 RNG RD 231,780-449-5570,www.cloverleafstables.com,"Riding Lessons, Training Show Horses, Sales",Horse & other equine production,Other animal production,"Agriculture, forestry, fishing and hunting",112920,Yes,,Private,,53.4148788456,-113.2722167967,
POINT (-113.09990692139249 53.46476364101077),Home-Alyze,52064 RNG RD 220,780-922-2235,,,Building inspection services,"Architectural, engineering & related services","Professional, scientific and technical services",541350,Yes,1841,Private,,53.464763641,-113.0999069214,
POINT (-113.32662533820205 53.566576783759494),A & B Rail Services Ltd,"200, 50 STRATHMOOR DR",780-449-7699,http://www.abrail.com,,Other heavy & civil engineering construction,Other heavy & civil engineering construction,Construction,237990,Yes,4004,Private,,53.5665767838,-113.3266253382,
POINT (-113.29507446341573 53.4991607666454),T.K.M. Distributors/Bag of Rags,52307 RNG RD 232,780-922-6428,,,,,,,Yes,,Private,,53.4991607667,-113.2950744634,
POINT (-113.3254039757559 53.537935352367626),Converging Technology Solutions Inc.,"148, 150 CHIPPEWA RD",780-467-1664,http://www.converging.net,,Computer systems design & related services,Computer systems design & related services,"Professional, scientific and technical services",541514,Yes,,Private,,53.5379353524,-113.3254039758,
POINT (-113.30942470467718 53.54297442629227),"Fuller, Dr Warren DC","34, 171 BROADWAY BLVD",780-467-8755,,,Offices of chiropractors,Offices of other health practitioners,Health care and social assistance,621310,Yes,1184,Private,,53.5429744263,-113.3094247047,
POINT (-113.3253812327597 53.53768832737561),Bella Accounting & Tax Services,"272, 150 CHIPPEWA RD",780-416-4420,,,Offices of accountants,"Accounting, tax prep. & bookkeeping services","Professional, scientific and technical services",541212,Yes,2379,Private,,53.5376883274,-113.3253812328,
POINT (-113.22098541275578 53.438980102782665),Kelvin Ogden,51479 RNG RD 225,780-417-1906,,,"Beef cattle ranching & farming, inc. feedlots",Cattle ranching & farming,"Agriculture, forestry, fishing and hunting",112110,Yes,,Private,,53.4389801028,-113.2209854128,
POINT (-113.32526439737725 53.5377386832044),Vitality Massage Inc.,"172, 150 CHIPPEWA RD",780-449-5534,,,Other personal care services,Personal care services,Other services (except public administration),812190,Yes,,Private,,53.5377386832,-113.3252643974,Yes
POINT (-113.28821314417485 53.5713799356792),BOS motorsports,185 TURBO DR,780-467-7007,http://www.Bosmotorsports.ca,,,,,0,Yes,1098,Private,,53.5713799357,-113.2882131442,
POINT (-113.30088043217513 53.51990509055175),Pine Street School,133 PINE ST,780-467-2246,http://pinestreet.ca/,Elk Island Public Schools - Elementary School (K-6),Elementary & secondary schools,Elementary & secondary schools,Educational services,611110,Yes,11324,Institutional,,53.5199050906,-113.3008804322,
POINT (-113.14936065723921 53.379695892009636),Crystalline Welding Ltd,51076 RNG RD 222,,,,All other specialty trade contractors,Other specialty trade contractors,Construction,238990,Yes,1389,Private,,53.379695892,-113.1493606572,
POINT (-113.19654083280606 53.37800979627866),Kilwinning Kennels,51063 RNG RD 224,780-485-7597,,,,,,,Yes,1378,Private,,53.3780097963,-113.1965408328,
POINT (-113.28600311318267 53.54219436564714),The Park Church,1 BROWER DR,780-467-6788,http://theparkchurch.ca/,Church,Religious organizations,Religious organizations,Other services (except public administration),813110,Yes,4790,Institutional,,53.5421943657,-113.2860031132,
POINT (-113.28737640335746 53.543418883877045),CapitalCare Laurier House Strathcona,12 BROWER DR,780-467-3366,http://www.capitalcare.net/Page158.aspx,,Nursing care facilities,Nursing care facilities,Health care and social assistance,623110,Yes,,Private,Large,53.5434188839,-113.2873764034,
POINT (-113.32370966017626 53.534371720225835),Sherwood Park Music,"107, 52 SIOUX RD",780-467-5537,http://www.sherwoodparkmusic.com,,All other schools & instruction,Other schools & instruction,Educational services,611690,Yes,,Private,,53.5343717202,-113.3237096602,Yes
POINT (-113.05068206836503 53.60563278216206),Trendsetting Stables,53440 RNG RD 214,780-433-1464,,,Horse & other equine production,Other animal production,"Agriculture, forestry, fishing and hunting",112920,Yes,,Private,,53.6056327822,-113.0506820684,
POINT (-113.1977615362311 53.424037932571316),Argyll Masonry,51378 RNG RD 224,780-922-5335,,,Masonry contractors,"Foundation, structure & related contractors",Construction,238140,Yes,2390,Private,,53.4240379326,-113.1977615362,
POINT (-113.14348602347383 53.55099105846272),Carrie Ann Trucking Ltd,3 MAIN ST,780-467-2663,,,"General trucking, long distance, truck-load",General freight trucking,Transportation and warehousing 48,484121,Yes,1496,Private,,53.5509910585,-113.1434860235,
POINT (-113.37483978355601 53.54391860990175),Shaw Pipe Protection Limited,10275 21 ST,780-467-5501,http://www.shawpipe.ca,,Plastic pipe & pipe fitting mfg.,Plastic product mfg.,Manufacturing 32,326122,Yes,,Private,,53.5439186099,-113.3748397836,
POINT (-113.1952133178537 53.529273987200185),Skyline Poultry Farms Ltd.,52517 RNG RD 224,780-922-5328,,,Broiler & other meat-type chicken production,Poultry & egg production,"Agriculture, forestry, fishing and hunting",112320,Yes,,Private,,53.5292739872,-113.1952133179,
POINT (-113.28161430242778 53.53646824796749),Glen Allan Out of School Care Ltd,106 GEORGIAN WY,780-467-5312,https://gaosc.wordpress.com/,Out of school care,Child day-care services,Child day-care services,Health care and social assistance,624410,Yes,7158,Private,,53.536468248,-113.2816143024,
POINT (-112.9247894286583 53.37885665876479),Chipps Tree Care Inc,51065 RNG RD 205,780-662-7616,,,Support activities for forestry,Support activities for forestry,"Agriculture, forestry, fishing and hunting",115310,Yes,,Private,,53.3788566588,-112.9247894287,
POINT (-113.31326915753381 53.543293089059674),Flying Stone,"90, 130 BROADWAY BLVD",780-570-5388,,,Lessors of res. buildings (exc. soc. housing),Lessors of real estate,Real estate and rental and leasing,531111,Yes,1389,Private,,53.5432930891,-113.3132691575,
POINT (-113.24037933265588 53.45448684725053),"Kingston, P. Welding Ltd",22560 TWP RD 520,780-464-1407,,,All other specialty trade contractors,Other specialty trade contractors,Construction,238990,Yes,1755,Private,,53.4544868473,-113.2403793327,
POINT (-113.29373328499332 53.52735726428052),Axiom Mortgage Solutions,"102, 2016 SHERWOOD DR",780- 449-6570 Ext. 101,http://www.axiommortgage.ca,,Mortgage & other loan brokers,Activities related to credit intermediation,Finance and insurance,522310,Yes,,Private,,53.5273572643,-113.293733285,Yes
POINT (-113.1137542726902 53.60018920954873),Redneck Millwright Services Ltd.,22050 TWP RD 534,780-922-7300,http://www.redneckmillwrightservicesltd.ca/,,"All other prof., scientific & tech. services","Other prof., scientific & technical services","Professional, scientific and technical services",541990,Yes,,Private,,53.6001892096,-113.1137542727,Yes
POINT (-113.3247837340827 53.53913953513832),Sherwood Park School of Dancing Ltd.,160 KASKA RD,780-467-7011,http://www.spschoolofdance.com,,Fine arts schools,Other schools & instruction,Educational services,611610,Yes,,Private,,53.5391395352,-113.3247837341,Yes
POINT (-113.38771820012292 53.53996658317017),Emco Limited Building Products,3011 101 AV,780-440-7333,,,,,,,Yes,25543,Private,,53.5399665832,-113.3877182001,
POINT (-113.37922668550142 53.52544784473513),Pit bull Energy,2424 91 AV,780-757-1688,http://Www.pitbullenergyservices.com,,Site preparation contractors,Other specialty trade contractors,Construction,238910,Yes,,Private,,53.5254478448,-113.3792266855,
POINT (-113.32710266171186 53.55936431910938),Warrior Holdings Inc,301 STREAMBANK AV,780-449-6688,,,,,,,Yes,2659,Private,,53.5593643191,-113.3271026617,
POINT (-113.30814937534504 53.529764034489865),The Clubhouse at Broadmoor,2100 OAK ST,780-449-9722,http://www.thebroadmoor.ca/club-house/,Restaurant,Full-service restaurants,Full-serv. rest. & limited-serv. eating place,Accommodation and food services,722511,Yes,,Private,,53.5297640345,-113.3081493753,
POINT (-113.29509735120136 53.50472640978594),Salisbury Landscaping,52337 RNG RD 232,780-410-0611,http://www.salisburylandscaping.ca,,Other personal care services,Personal care services,Other services (except public administration),812190,Yes,,Private,,53.5047264098,-113.2950973512,Yes
POINT (-113.18439483614128 53.48144149808798),Source Lumber Sales Ltd,22373 TWP RD 522,780-468-3222,,,,,,,Yes,1023,Private,,53.4814414981,-113.1843948361,
POINT (-113.32680484006939 53.53951959686594),Sherwood Park Bottle Depot,252 KASKA RD,780-464-6830,http://www.sherwoodparkbd.com,,All other support services,Other support services,"Administrative and support, waste management and remediation services",561990,Yes,1841,Private,,53.5395195969,-113.3268048401,
POINT (-113.29466122862051 53.54330022267968),Vleeming Vleeming O'Neill LLP,"305, 85 CRANFORD WY",780-449-6143,http://www.jpvca.com,,Offices of accountants,"Accounting, tax prep. & bookkeeping services","Professional, scientific and technical services",541212,Yes,1389,Private,,53.5433002227,-113.2946612286,Yes
POINT (-112.99885559125929 53.68037033083517),Doug Frey,54345 RNG RD 212,780-998-2749,,,Oilseed (exc. soybean) farming,Oilseed & grain farming,"Agriculture, forestry, fishing and hunting",111120,Yes,,Private,,53.6803703309,-112.9988555913,
POINT (-112.91276550349806 53.452388762566684),Country Star Water Service,51518 RNG RD 204A,780-922-5552,,,,,,,Yes,,Private,,53.4523887626,-112.9127655035,
POINT (-113.32497470124017 53.537960855220966),Strathcona Law Group,"132, 150 CHIPPEWA RD",780-417-9222,http://www.strathconalawgroup.com,,Offices of lawyers,Legal services,"Professional, scientific and technical services",541110,Yes,,Private,,53.5379608552,-113.3249747012,Yes
POINT (-113.07297515979097 53.494552612100506),Fabric Shelters,52263 RNG RD 215,,,,Other plate work & structural product mfg.,Architectural & structural metals mfg.,Manufacturing 33,332319,Yes,3660,Private,,53.4945526121,-113.0729751598,
POINT (-113.29448887274181 53.59772024044065),Aecon Industrial Western Inc.,53367 RNG RD 232,780-416-5700,http://www.aecon.com,,Industrial building & structure construction,Non-residential building construction,Construction,236210,Yes,,Private,,53.5977202405,-113.2944888727,
POINT (-113.25707244939352 53.59883499079812),Akenside Kennels 2011 Ltd.,23037 TWP RD 534,780-467-2530,http://www.akensidekennels.ca,,Pet care (exc. veterinary) services,Other personal services,Other services (except public administration),812910,Yes,,Private,,53.5988349908,-113.2570724494,
POINT (-113.28720838339008 53.57104452557687),McCordick Glove and Safety Inc.,195 TURBO DR,780-466-9660,http://www.mccordick.com,,Clothing & clothing accessories whl.,"Textile, clothing & footwear whl.",Wholesale trade,414110,Yes,,Private,,53.5710445256,-113.2872083834,
POINT (-113.31491851763299 53.541645050211805),Brush Dental,"226, 222 BASELINE RD",780-467-6880,http://www.yoursherwoodparkdentist.com,Dental,Offices of dentists,Offices of dentists,Health care and social assistance,621210,Yes,1558,Private,,53.5416450502,-113.3149185176,
POINT (-113.28481292664873 53.57334518342879),Soldan Fence and Metals,74 LIBERTY RD,780-436-9530,http://www.soldanfence.ca,,All other specialty trade contractors,Other specialty trade contractors,Construction,238990,Yes,,Private,,53.5733451834,-113.2848129266,Yes
POINT (-113.3756894359382 53.5432321393963),"Link Scaffold Products North America, Inc",2102 102 AV,780-449-6111,,,All other specialty trade contractors,Other specialty trade contractors,Construction,238990,Yes,4499,Private,,53.5432321394,-113.3756894359,
POINT (-113.30942470467718 53.54297442629227),Gemstone Workforce Logistics Inc.,"34, 171 BROADWAY BLVD",780 464 9085,http://www.gemstonelogistics.com,,Human resources consulting services,"Mgmt., scientific & technical consulting serv","Professional, scientific and technical services",541612,Yes,,Private,,53.5429744263,-113.3094247047,
POINT (-112.85482025134976 53.41494751006032),Don's Bobcat Service,51328 RNG RD 202,780-662-4557,,,Independent writers & authors,"Independent artists, performers and writers","Arts, entertainment and recreation",711513,Yes,,Private,,53.4149475101,-112.8548202513,
POINT (-113.32817230367995 53.51347641689505),Aradia Fitness,"108, 160 BROADWAY BLVD",780-819-0977,http://www.aradiafitness.com,,Fitness & recreational sports centres,Other amusement & recreation industries,"Arts, entertainment and recreation",713940,Yes,,Private,,53.5134764169,-113.3281723037,Yes
POINT (-113.3229584650784 53.53565102054911),H20 Logics Inc.,"205, 47 ATHABASCAN AV",780-417-9935/780-702-6872,http://www.h2ologics.com,,Commercial & service industry machinery mfg.,Commercial & service industry machinery mfg.,Manufacturing 33,333310,Yes,1345,Private,,53.5356510206,-113.3229584651,
POINT (-113.32376098609103 53.53614807096223),Capcomm Realty,77 CHIPPEWA RD,780-570-5177,http://www.capcommrealty.ca,,Real estate agents,Offices of real estate agents & brokers,Real estate and rental and leasing,531211,Yes,1518,Private,,53.536148071,-113.3237609861,
POINT (-113.1730804436854 53.50721359249698),Gorsline Stables Limited,52358 RNG RD 223,780-922-3915,,,Horse & other equine production,Other animal production,"Agriculture, forestry, fishing and hunting",112920,Yes,4273,Private,,53.5072135925,-113.1730804437,
POINT (-113.2940950211628 53.54343080910013),Prince Properties Management,"100, 85 CRANFORD WY",780-416-9098,http://www.princeproperties.ca,,Office administrative services,Office administrative services,"Administrative and support, waste management and remediation services",561110,Yes,1389,Private,,53.5434308091,-113.2940950212,Yes
POINT (-113.37069702154791 53.5564308167822),Nexeo Solutions Canada Corp,1720 106 AV,780-417-9385,,,,,,,Yes,3294,Private,,53.5564308168,-113.3706970215,Yes
POINT (-113.32706183990156 53.53916025422132),Happy Pet Spa,246 KASKA RD,780-449-4779,http://www.happypetspa.ca,,Pet care (exc. veterinary) services,Other personal services,Other services (except public administration),812910,Yes,2960,Private,,53.5391602542,-113.3270618399,
POINT (-113.30955029370813 53.54301092599689),"Cutting Edge Hair Company Ltd, The","32, 171 BROADWAY BLVD",780-464-0977,http://www.cuttingedgehair.ca,,Unisex hair salons,Personal care services,Other services (except public administration),812116,Yes,3294,Private,,53.543010926,-113.3095502937,
POINT (-113.32487105922743 53.538304776550646),Sherwood Park Laser Clinic,"122, 150 CHIPPEWA RD",780 449-1225,,,Other personal care services,Personal care services,Other services (except public administration),812190,Yes,,Private,,53.5383047766,-113.3248710592,
POINT (-113.29181456519478 53.542267631118044),Park Medical Clinic,"100, 410 BASELINE RD",780-464-2004,http://drs-adam-sutanto-elfiky.primacyclinics.ca/,Mediclinic (in Superstore),Offices of physicians,Offices of physicians,Health care and social assistance,621110,Yes,,Private,Medium,53.5422676311,-113.2918145652,
POINT (-113.3287792257609 53.537385709934874),Boyd Autobody & Glass,113 CREE RD,780-467-8441,http://www.boydautobody.com,,"Automotive body, paint & interior r&m",Automotive r&m,Other services (except public administration),811121,Yes,6039,Private,,53.53738571,-113.3287792258,
POINT (-113.32206068513278 53.536136730104936),Bubbles Car Wash and Detail Centre,25 ATHABASCAN AV,780-464-6420,http://www.bubbles.ca,,Car washes,Automotive r&m,Other services (except public administration),811192,Yes,1184,Private,,53.5361367301,-113.3220606851,
POINT (-113.09949493395962 53.68994522143277),Smith Park Farm LTD,54420 RNG RD 220,780-777-0968,,,Oilseed (exc. soybean) farming,Oilseed & grain farming,"Agriculture, forestry, fishing and hunting",111120,Yes,,Private,,53.6899452215,-113.099494934,
POINT (-113.32835123047688 53.53855236859948),Robin's Automotive,261 KASKA RD,780-467-6006/6029,,,General automotive repair,Automotive r&m,Other services (except public administration),811111,Yes,2637,Private,,53.5385523686,-113.3283512305,Yes
POINT (-113.32515058924234 53.53531556220963),Ahlstrom Wright Barristers and Solicitors,"200, 80 CHIPPEWA RD",780-464-7477,https://ahlstromwright.ca/,,Offices of lawyers,Legal services,"Professional, scientific and technical services",541110,Yes,12504,Private,,53.5353155622,-113.3251505892,Yes
POINT (-113.32172119564429 53.53183182705809),Art Society of Strathcona County,590 BROADMOOR BLVD,780-449-4443,http://www.assc.memberlodge.org,,Civic & social organizations,Civic & social organizations,Other services (except public administration),813410,Yes,1184,Private,,53.5318318271,-113.3217211956,Yes
POINT (-113.27429199230392 53.558715820043616),Summerwood Village Retirement Residence,4255 CLOVER BAR RD,780-416-1912,http://www.allseniorscare.com,Retirement Center,Nursing care facilities,Nursing care facilities,Health care and social assistance,623110,Yes,,Private,Large,53.5587158201,-113.2742919923,Yes
POINT (-113.324071600827 53.53595317428384),Innovative Benefits,"221, 65 CHIPPEWA RD",780-448-0783,https://innovativebenefits.ca/,,Human resources consulting services,"Mgmt., scientific & technical consulting serv","Professional, scientific and technical services",541612,Yes,,Private,,53.5359531743,-113.3240716008,Yes
POINT (-113.3317413327197 53.53628158546927),Cleaning Professionals,"160, 363 SIOUX RD",587-410-7196,http://www.cleaningpros.ca,,Janitorial services (exc. window cleaning),Services to buildings & dwellings,"Administrative and support, waste management and remediation services",561722,Yes,,Private,,53.5362815855,-113.3317413327,Yes
POINT (-112.94938659711725 53.429912567281924),Still Meadows Ranch,51427 RNG RD 210,780-922-5566,http://www.stillmeadowsranch.ca,,"Beef cattle ranching & farming, inc. feedlots",Cattle ranching & farming,"Agriculture, forestry, fishing and hunting",112110,Yes,,Private,,53.4299125673,-112.9493865971,
POINT (-113.28745196882431 53.57215653285608),Lockwood Valves Canada,182 TURBO DR,780-449-4077,http://www.lockwoodint.com,,"Industrial machinery, equip. & supplies whl.","Construction, forestry & ind'l machinery whl.",Wholesale trade,417230,Yes,1582,Private,,53.5721565329,-113.2874519688,
POINT (-113.28325652994673 53.5360374450768),Jean Vanier Catholic School,109 GEORGIAN WY,780-467-3633,https://jv.eics.ab.ca/,Elk Island Catholic Schools - School (PreK-8),Elementary & secondary schools,Elementary & secondary schools,Educational services,611110,Yes,11324,Institutional,,53.5360374451,-113.2832565299,
POINT (-113.3261260985836 53.54035186748624),Corporation GATX Rail Canada,131 SENECA RD,780-417-0965,http://www.canadianchemistry.ca,,Support activities for rail transportation,Support activities for rail transportation,Transportation and warehousing 48,488210,Yes,2099,Private,,53.5403518675,-113.3261260986,
POINT (-113.29481506237924 53.52628707882832),Carlson Projects North Ltd.,2012 SHERWOOD DR,780-464-0770,,,Travel agencies,Travel arrangement & reservation services,"Administrative and support, waste management and remediation services",561510,Yes,1345,Private,,53.5262870788,-113.2948150624,
POINT (-113.31945800810244 53.48422241158433),Five Star Engineering Ltd,52207 RNG RD 233,780-499-9007,,,Industrial building & structure construction,Non-residential building construction,Construction,236210,Yes,,Private,,53.4842224116,-113.3194580081,
POINT (-113.07537078977084 53.54735565147479),Amkirk Landscape Construction Inc,53034 RNG RD 215,780-916-5577,http://www.amkirk.com/,,Landscape architectural services,"Architectural, engineering & related services","Professional, scientific and technical services",541320,Yes,8202,Private,,53.5473556515,-113.0753707898,
POINT (-112.92514800983409 53.66765594462369),"Naundorf, Alvin W",54251 RNG RD 205,780-998-2871,,,Oilseed (exc. soybean) farming,Oilseed & grain farming,"Agriculture, forestry, fishing and hunting",111120,Yes,,Private,,53.6676559446,-112.9251480098,
POINT (-113.30256423885768 53.54532485842646),Synergy Women's Wellness Centre,"225, 501 BETHEL DR",780-467-4343,,,Offices of physicians,Offices of physicians,Health care and social assistance,621110,Yes,,Private,,53.5453248584,-113.3025642389,
POINT (-113.2627153398735 53.527533019750265),Strathcona Athletic Park,1011 CLOVER BAR RD,780-467-6136,https://www.strathcona.ca/,Recreation,Agents & managers for public figures,Agents & managers for public figures,"Arts, entertainment and recreation",711410,Yes,1389,Private,,53.5275330198,-113.2627153399,
POINT (-113.05068206836503 53.60563278216206),HEAD-UP,53440 RNG RD 214,780-439-8831,,,Graphic design services,Specialized design services,"Professional, scientific and technical services",541430,Yes,1184,Private,,53.6056327822,-113.0506820684,
POINT (-113.33168117215534 53.5373226059507),Astro Wall Systems Inc,489 SIOUX RD,780-464-9779,,,Drywall & insulation contractors,Building finishing contractors,Construction,238310,Yes,3175,Private,,53.537322606,-113.3316811722,
POINT (-113.32958564712061 53.53772864824445),Adjust Climate Control,202 CREE RD,780-266-0347,,,"Plumbing, heating & ac contractors",Building equipment contractors,Construction,238220,Yes,,Private,,53.5377286483,-113.3295856471,Yes
POINT (-113.02612304621802 53.59893798813531),Partyking Inc,21303 TWP RD 534,780-991-9677,http://www.partykingrents.com,,Other commercial & ind'l mach. rental/leasing,Commercial & ind'l machinery rental & leasing,Real estate and rental and leasing,532490,Yes,1184,Private,,53.5989379882,-113.0261230462,
POINT (-113.18370056185442 53.48327255254911),Mandala Du Lac,22330 TWP RD 522,780-922-3000,,,,,,,Yes,2067,Private,,53.4832725526,-113.1837005619,
POINT (-113.22077941808992 53.568157196090716),Key Thermal Inc,53169 RNG RD 225,,,,,,,,Yes,4101,Private,,53.5681571961,-113.2207794181,
POINT (-113.32748473668421 53.53978382046449),Spectrum Mechanical Ltd,298 KASKA RD,780-410-9902,http://www.spectrummechanical.ca,,"Plumbing, heating & ac contractors",Building equipment contractors,Construction,238220,Yes,5038,Private,,53.5397838205,-113.3274847367,
POINT (-113.27052072831287 53.59171874546386),Telus Services Inc,53338 RNG RD 231,780-416-7027,,,Wireless telecom. carriers (exc. satellite),Wireless telecom. carriers (exc. satellite),Information and cultural industries,517210,Yes,1389,Private,,53.5917187455,-113.2705207283,
POINT (-113.15880584659678 53.57092285145038),I.C. Forming Inc.,22238 HWY 16,780-922-5551,http://www.icforming.com,,Metal service centres,Metal service centres,Wholesale trade,416210,Yes,,Private,,53.5709228515,-113.1588058466,Yes
POINT (-113.0731811512046 53.69238662648407),Johnston Promotional Products,54429 RNG RD 215,780-998-5172,,,Specialty advertising distributors,Advertising & related services,"Professional, scientific and technical services",541891,Yes,,Private,,53.6923866265,-113.0731811512,
POINT (-113.27078247062754 53.49420547550064),Scripture Printing Ministry,52261 RNG RD 231,780-449-2039,,,,,,,Yes,2142,Private,,53.4942054755,-113.2707824706,
POINT (-113.12368774442612 53.571163177115444),Pleasantview Stables,53206 RNG RD 221,780-922-2509,,,Horse & other equine production,Other animal production,"Agriculture, forestry, fishing and hunting",112920,Yes,,Private,,53.5711631771,-113.1236877444,
POINT (-112.95207214367333 53.53868102974099),Legacy Ridge Equine Facility,52568 RNG RD 210,780-668-1365,,,Horse & other equine production,Other animal production,"Agriculture, forestry, fishing and hunting",112920,Yes,,Private,,53.5386810298,-112.9520721437,
POINT (-113.32561831240534 53.53867227478026),MacMillan Team,"104, 150 CHIPPEWA RD",780-975-1234,http://Www.macmillanteam.com,,Offices of real estate brokers,Offices of real estate agents & brokers,Real estate and rental and leasing,531212,Yes,1184,Private,,53.5386722748,-113.3256183124,
POINT (-113.32349169261357 53.53973098575705),Hughes Car Wash,100 KASKA RD,780-467-2337,http://www.hughescarwash.ca/index.php,,Car washes,Automotive r&m,Other services (except public administration),811192,Yes,3294,Private,,53.5397309858,-113.3234916926,
POINT (-113.14686584546627 53.40218734669044),Stapleton Farrier Supply & Service,51235 RNG RD 222,780-922-2070,,,Support activities for animal production,Support activities for animal production,"Agriculture, forestry, fishing and hunting",115210,Yes,,Private,,53.4021873467,-113.1468658455,
POINT (-113.37481689446162 53.52535629267178),Edmonton Kenworth Ltd.,2110 91 AV,780-464-1212,http://Www.edmkw.com,,"Truck, truck tractor & bus whl.",Motor vehicle whl.,Wholesale trade,415120,Yes,,Private,,53.5253562927,-113.3748168945,
POINT (-112.97431945799833 53.69752121007064),Debar Grain Farms Ltd,54421 RNG RD 211,780-992-0584,,,Oilseed (exc. soybean) farming,Oilseed & grain farming,"Agriculture, forestry, fishing and hunting",111120,Yes,,Private,,53.6975212101,-112.974319458,
POINT (-113.35207617217239 53.5680698412166),Cimmaron Ventures Inc,323 116 AV,780-467-7203,,,Other support activities for road transport,Support activities for road transportation,Transportation and warehousing 48,488490,Yes,,Private,,53.5680698412,-113.3520761722,
POINT (-113.19772338808951 53.384513854788665),Kesll Welding Inc,51120 RNG RD 224,780-922-5403,,,All other specialty trade contractors,Other specialty trade contractors,Construction,238990,Yes,2336,Private,,53.3845138548,-113.1977233881,
POINT (-113.2943390605107 53.51412268638362),SAFFRON: Strathcona Sexual Assault Centre Ltd.,"44, 48 BRENTWOOD BLVD",780-449-0900,http://saffroncentre.com/,,Emergency & other relief services,"Community food & housing & emerg., etc. serv.",Health care and social assistance,624230,Yes,,Private,,53.5141226864,-113.2943390605,Yes
POINT (-112.9252471920392 53.388435364329474),M.D. Faux Decorating Ltd,51139 RNG RD 205,780-667-3381,,,Painting & wall covering contractors,Building finishing contractors,Construction,238320,Yes,,Private,,53.3884353643,-112.925247192,
POINT (-113.19768524130218 53.387409210046634),Pulse Wireline Services Ltd,51136 RNG RD 224,780-464-2981,http://www.pulsewireline.com,,,,,,Yes,3111,Private,,53.3874092101,-113.1976852413,
POINT (-113.37533150042015 53.546486069433044),Supreme Steel Ltd. - Bridge Division,10496 21 ST,780-467-2266,http://www.supremesteel.com,,"Highway, street & bridge construction","Highway, street & bridge construction",Construction,237310,Yes,,Private,,53.5464860695,-113.3753315004,
POINT (-112.97497558552183 53.577720641785014),E D C. Enterprises Ltd.,53239 RNG RD 211,,,,Other commercial & ind'l mach. rental/leasing,Commercial & ind'l machinery rental & leasing,Real estate and rental and leasing,532490,Yes,1184,Private,,53.5777206418,-112.9749755855,
POINT (-113.27027130084306 53.57244491641543),Outback RV,53213 RNG RD 231,780-417-3949,http://www.outbackcountryrv.com,,Recreational vehicle dealers,Other motor vehicle dealers,Retail trade 44,441210,Yes,43056,Private,,53.5724449164,-113.2702713008,
POINT (-113.29217168702885 53.578589729927074),Ventures West Transport Inc,"20, 40 CHALLENGER CR",780-449-1955,,,"General trucking, long distance, truck-load",General freight trucking,Transportation and warehousing 48,484121,Yes,1345,Private,,53.5785897299,-113.292171687,
POINT (-113.00022888265106 53.57093810966307),Brookville Community League,53203 RNG RD 212,780-922-2788,,,Lessors - non-res. buildings (exc. mini-ware),Lessors of real estate,Real estate and rental and leasing,531120,Yes,1518,County,,53.5709381097,-113.0002288827,
POINT (-113.31891082536478 53.53411941359065),Mr. Cakes Day Care (Sherwood Park) Ltd,2 MISSION ST,780-464-5944,http://www.mrcakesdaycaresherwoodpark.ca/,Child Care,Child day-care services,Child day-care services,Health care and social assistance,624410,Yes,5048,Private,,53.5341194136,-113.3189108254,
POINT (-113.2205047608514 53.433002472332866),Riteway Vacuum Service,51445 RNG RD 225,780-449-6295,http://www.ritewayvacuum.com,,All other waste management services,Remediation & other waste mgmt. services,"Administrative and support, waste management and remediation services",562990,Yes,5845,Private,,53.4330024724,-113.2205047609,
POINT (-113.30814937534504 53.529764034489865),Golf Wright Sales Inc.,2100 OAK ST,780-467-7373,http://www.bpgc.ca,,Golf equipment and supply specialty stores,"Sport, hobby & musical instrument stores",Retail trade 45,451111,Yes,,Private,,53.5297640345,-113.3081493753,Yes
POINT (-113.12363433739868 53.6631393427296),A Lazy S South Devons,54230 RNG RD 221,780-992-7298,,,Hay farming,Other crop farming,"Agriculture, forestry, fishing and hunting",111940,Yes,,Private,,53.6631393427,-113.1236343374,
POINT (-113.32388026050133 53.53445735651575),CanQual Inc,"204, 52 SIOUX RD",780-449-5545,http://www.canqual.com,,Computer systems design & related services,Computer systems design & related services,"Professional, scientific and technical services",541514,Yes,3886,Private,,53.5344573565,-113.3238802605,
POINT (-113.32380316861374 53.53596916612882),Gallo & Company Chartered Accountants,"221, 65 CHIPPEWA RD",780-417-7530,http://www.galloandco.ca,,Offices of accountants,"Accounting, tax prep. & bookkeeping services","Professional, scientific and technical services",541212,Yes,,Private,,53.5359691661,-113.3238031686,Yes
POINT (-113.19615936234283 53.407737731965675),Anna's Upholstery & Interior Design,51265 RNG RD 224,780-922-2118,,,Landscaping services,Services to buildings & dwellings,"Administrative and support, waste management and remediation services",561730,Yes,,Private,,53.407737732,-113.1961593623,
POINT (-113.3032226554234 53.5270423886948),Festival Place Ltd,100 FESTIVAL WY,780-449-3378/(780) 464-2852,http://www.festivalplace.ab.ca,,Live theatres & other presenters with fac.,"Promoters of performing arts, sports, etc.","Arts, entertainment and recreation",711311,Yes,4994,Private,,53.5270423887,-113.3032226554,Yes
POINT (-113.29619598503135 53.39841079685578),Build It Services Ltd,51214 RNG RD 232,780-467-2217,,,,,,,Yes,1033,Private,,53.3984107969,-113.296195985,
POINT (-113.24765014662108 53.605033875446104),Marvac Services Ltd.,53432 HWY 21,780-467-1538,,,Site preparation contractors,Other specialty trade contractors,Construction,238910,Yes,,Private,,53.6050338755,-113.2476501466,
POINT (-113.32691619351256 53.53573807410832),Brasco Safety Inc,157 ATHABASCAN AV,780-449-2551,,,Other scientific & technical consulting serv.,"Mgmt., scientific & technical consulting serv","Professional, scientific and technical services",541690,Yes,,Private,,53.5357380741,-113.3269161935,
POINT (-113.11607360785442 53.45267868017354),Sunhaven Farms Inc,22059 TWP RD 520,780-842-3010,,,Hog & pig farming,Hog & pig farming,"Agriculture, forestry, fishing and hunting",112210,Yes,,Private,,53.4526786802,-113.1160736079,
POINT (-113.29443852091666 53.51411569897115),Mindful Moments,"46, 48 BRENTWOOD BLVD",780-803-2298,,,Commercial & ind'l mach. & equip. r&m,Commercial & ind'l mach. & equip. r&m,Other services (except public administration),811310,Yes,,Private,,53.514115699,-113.2944385209,Yes
POINT (-113.32210592014117 53.5345402625198),Sherwood Park Eye Centre,30 SIOUX RD,780-464-4575,http://sherwoodparkeyecentre.com/,,Offices of optometrists,Offices of other health practitioners,Health care and social assistance,621320,Yes,,Private,,53.5345402625,-113.3221059201,Yes
POINT (-113.13720703131166 53.5489196780628),Gro Welding Contracting,7 SECOND AV,,,,All other specialty trade contractors,Other specialty trade contractors,Construction,238990,Yes,1389,Private,,53.5489196781,-113.1372070313,
POINT (-113.32439422536949 53.54010391139833),Kal Tire,220 CHIPPEWA RD,780-464-3744,http://www.kaltire.com,,Tire dealers,"Automotive parts, accessories & tire stores",Retail trade 44,441320,Yes,5662,Private,,53.5401039114,-113.3243942254,Yes
POINT (-113.28752136159586 53.54188537579756),Strathcona County Health Centre,2 BROWER DR,780-342-4600,http://www.albertahealthservices.ca,,Offices of all other health practitioners,Offices of other health practitioners,Health care and social assistance,621390,Yes,,Private,,53.5418853758,-113.2875213616,
POINT (-112.97431945799833 53.69752121007064),Barry Naundorf,54421 RNG RD 211,780-992-0584,,,Oilseed (exc. soybean) farming,Oilseed & grain farming,"Agriculture, forestry, fishing and hunting",111120,Yes,,Private,,53.6975212101,-112.974319458,
POINT (-113.3238220209049 53.537269592344394),Goodwill,130 ATHABASCAN AV,780-464-3854,http://www.goodwill.ab.ca/,,Used merchandise stores,Used merchandise stores,Retail trade 45,453310,Yes,,Private,,53.5372695924,-113.3238220209,
POINT (-113.3294874538346 53.55807530932258),Integrated Protective Coatings,500 STREAMBANK AV,780-467-3299,http://Www.ipccoatings.com,,"Coating, engraving, cold & heat treating act","Coating, engraving, cold & heat treating act",Manufacturing 33,332810,Yes,,Private,,53.5580753093,-113.3294874538,Yes
POINT (-113.04946899420297 53.50506973306113),Country Boyz Wye Road,52341 RNG RD 214,780-922-7165,,,Gasoline stations with convenience stores,Gasoline stations,Retail trade 44,447110,Yes,,Private,,53.5050697331,-113.0494689942,
POINT (-113.29474154873581 53.543428301809804),Tailor Made Insurance Services Ltd.,"112, 85 CRANFORD WY",780-467-2122,http://www.tailormadeins.com,,Insurance agencies & brokerages,"Agencies, brokerages & other insurance act.",Finance and insurance,524210,Yes,,Private,,53.5434283018,-113.2947415487,Yes
POINT (-113.29533386231827 53.52496337952879),Jewell Korte Ferro & Company,2004 SHERWOOD DR,780-640-3322,http://www.advico.ca,,Administrative & gen. mgmt. consulting serv.,"Mgmt., scientific & technical consulting serv","Professional, scientific and technical services",541611,Yes,6114,Private,,53.5249633795,-113.2953338623,
POINT (-113.33631134005141 53.396057128781514),Boender Dairy,23354 TWP RD 512,780-929-9349,,,Wheat farming,Oilseed & grain farming,"Agriculture, forestry, fishing and hunting",111140,Yes,,Private,,53.3960571288,-113.3363113401,
POINT (-113.31206775543188 53.543237562286656),Clark's Restaurant,"170, 130 BROADWAY BLVD",780-416-9228,,Restaurant,Full-service restaurants,Full-serv. rest. & limited-serv. eating place,Accommodation and food services,722511,Yes,,Private,,53.5432375623,-113.3120677554,
POINT (-113.22077941808992 53.568157196090716),Enviro-Pro Geosynthetics Ltd,53169 RNG RD 225,780-417-1980,http://www.enviro-pro.ca,,,,,,Yes,3003,Private,,53.5681571961,-113.2207794181,
POINT (-113.14640808191291 53.513370514059844),Triple Two (222) Rentals,52407 RNG RD 222,780-922-6534,,,Other commercial & ind'l mach. rental/leasing,Commercial & ind'l machinery rental & leasing,Real estate and rental and leasing,532490,Yes,,Private,,53.5133705141,-113.1464080819,
POINT (-113.14726511130125 53.56066920837393),Ardrossan General Store,53125 RNG RD 222,780-922-5416,,,Convenience stores,Grocery stores,Retail trade 44,445120,Yes,,Private,,53.5606692084,-113.1472651113,
POINT (-113.3074257077318 53.5231167592711),Leon Miller Group Inc,1606 SHERWOOD DR,780-449-3001,http://www.startover.ca,,Furniture stores,Furniture stores,Retail trade 44,442110,Yes,1098,Private,,53.5231167593,-113.3074257077,
POINT (-113.19827270448977 53.474685668628084),Shadyvale Equestrian Centre,52140 RNG RD 224,780-922-4298,,,,,,,Yes,1184,Private,,53.4746856686,-113.1982727045,
POINT (-113.29533386231827 53.52496337952879),Capital City Savings And Cu Ltd,2004 SHERWOOD DR,780-449-7760,,,Local credit unions,Depository credit intermediation,Finance and insurance,522130,Yes,1518,Private,,53.5249633795,-113.2953338623,
POINT (-113.3318639551343 53.5369220161515),Kowal Homes,441 SIOUX RD,780-467-5405,,,Residential building construction,Residential building construction,Construction,236110,Yes,2271,Private,,53.5369220162,-113.3318639551,
POINT (-113.3684692386082 53.54796981816403),Pembina Pipeline Corporation,10503 17 ST,780-467-8841,,,Pipeline transportation of crude oil,Pipeline transportation of crude oil,Transportation and warehousing 48,486110,Yes,9569,Private,,53.5479698182,-113.3684692386,
POINT (-113.33043640618716 53.538609222156005),Total Choice Automotive Ltd,335 KASKA RD,780-449-6980,,,General automotive repair,Automotive r&m,Other services (except public administration),811111,Yes,1184,Private,,53.5386092222,-113.3304364062,
POINT (-113.07190704312242 53.536941528453774),Prairie Mushrooms,52557 RNG RD 215,780-467-3555,http://www.prairiemushrooms.com,,Mushroom production,"Greenhouse, nursery & floriculture production","Agriculture, forestry, fishing and hunting",111411,Yes,23250,Private,,53.5369415285,-113.0719070431,
POINT (-112.97493743841787 53.55825424194075),Investologist.Com,53113 RNG RD 211,780-922-1178,,,Automotive parts & accessories stores,"Automotive parts, accessories & tire stores",Retail trade 44,441310,Yes,1098,Private,,53.558254242,-112.9749374384,
POINT (-113.39346313537334 53.53169250510253),Norwood Waterworks,9439 34 ST,780-488-7788,http://www.norwoodwaterworks.com,,Home & garden equipment r&m,Personal & household goods r&m,Other services (except public administration),811411,Yes,,Private,,53.5316925051,-113.3934631354,
POINT (-113.2961695205949 53.534829505828874),Kidz in the Park Ltd.,2051 SHERWOOD DR,780-464-2637,http://www.kidzinthepark.ca/,,Child day-care services,Child day-care services,Health care and social assistance,624410,Yes,4158,Private,,53.5348295058,-113.2961695206,Yes
POINT (-113.37112301833238 53.53794308325315),North Star Pallets Inc.,1710 RAILWAY ST,780-449-6050,http://www.nspallets.com,,Wood container & pallet mfg.,Other wood product mfg.,Manufacturing 32,321920,Yes,13261,Private,,53.5379430833,-113.3711230183,
POINT (-113.04910278267118 53.79296493522205),Jim & Randy Radke,55523 RNG RD 213,780-998-1573,,,Oilseed (exc. soybean) farming,Oilseed & grain farming,"Agriculture, forestry, fishing and hunting",111120,Yes,,Private,,53.7929649352,-113.0491027827,
POINT (-113.19647216743964 53.572341918804376),Marguerite's Flowers,53211 RNG RD 224,780-922-3524,,,All other miscellaneous mfg.,Other miscellaneous mfg.,Manufacturing 33,339990,Yes,,Private,,53.5723419188,-113.1964721674,
POINT (-113.22209930399629 53.503845214628015),Pioneer Cabinets Ltd.,52334 RNG RD 225,780-467-3758,,,Wood kitchen cabinet & counter top mfg.,Household & inst. furniture & cabinet mfg.,Manufacturing 33,337110,Yes,4338,Private,,53.5038452146,-113.222099304,Yes
POINT (-113.12416076723308 53.6424026485818),Lawrence Farms,54078 RNG RD 221,780-998-3169,,,Oilseed (exc. soybean) farming,Oilseed & grain farming,"Agriculture, forestry, fishing and hunting",111120,Yes,,Private,,53.6424026486,-113.1241607672,
POINT (-113.33152770947079 53.53620529198247),Century Automatic Sprinklers Ltd.,"100, 363 SIOUX RD",780-417-3150,http://www.centurysprinkler.ca,,"Plumbing, heating & ac contractors",Building equipment contractors,Construction,238220,Yes,3563,Private,,53.536205292,-113.3315277095,
POINT (-113.09714508090985 53.67163848874489),Rantra Farms,54277 RNG RD 220,780-998-1247,,,Oilseed (exc. soybean) farming,Oilseed & grain farming,"Agriculture, forestry, fishing and hunting",111120,Yes,,Private,,53.6716384888,-113.0971450809,
