Business Name,Products or Services,Unit,House Number,Road,Postal Code,Phone,Town Centre,Longitude,Latitude
Stablefly Design,Design Serv.,118,13806,Central Ave,V3T1R9,,SCC,-122.8394985,49.18916104
Eden Electric Ltd,Contractor - Electrical ,79,13766,Central Ave,V3T1R9,,SCC,-122.8408481,49.18927716
Fox Star Construction Ltd,Contractor - Construction,,14377,123A St,V3W1S3,,NTC,,
A & A Satellite Express Ltd,Satellite Cont.,,262,127 St,V4A3S2,,SSTC,,
Visual Art Concrete,Mold making and concrete production is at a facility in Langley ,2007,,151A St,V4A7C6,,SSTC,,
Pro Image Painting,Contractor - Painting,,7415,65A Ave,V3W7L3,,NTC,,
Russcat Electrical Civil Contractors Inc,"Site Development, Excavation Cont.",,2638,Croydon Dr,V3S0C5,,SSTC,,
eBusiness Advantage Canada Inc,Computer Software Consulting and Development,C401,9848,East Whalley Ring Rd,V3T5S8,,SCC,,
The Body Shop,Natural Cosmetics,,2542,Guildford Town Centre,V3R7C1,6045885440,GTC,,
Pink Cosmos Designs,Home Crafts,22,9088,Holt Rd,V3V4H3,,WTC,-122.889864,49.16871563
Ganaan Highland Manufacturing Ltd ,Manufacturing: Design and products for bagpipes and drums ,,10155,Mary Dr,V3V3B8,,WTC,-122.8733448,49.18720264
1082780 BC Ltd,Contractor: Renovations,,10078,Mary Dr,V3V3B7,,WTC,-122.8717761,49.18580838
Bikaner Indian Cuisine &  Sweets,Restaurant - No Alcohol,109,15161,56 Ave,V3S9A5,,NTC,-122.8025301,49.10471729
Spice Kings Bistro Ltd,Restaurant - No Alcohol,102,15325,56 Ave,V3S0X9,,NTC,-122.798429,49.10524442
World Financial Group,Financial Planning/Consultant,305,14928,56 Ave,V3S2N5,,NTC,-122.8089677,49.1042299
Cora Breakfast and Lunch Surrey,Restaurant - No Alcohol,101/,15133,56 Ave,V3S9A5,,NTC,-122.8057861,49.10516994
Sweet Avenue Bakery,Bakery,135,17455,56 Ave,V3X2X6,,CTC,-122.7395975,49.10436862
Virtue Kennels,Hobby Kennel - 3 Dogs,,14246,56 Ave,V3X3A6,,NTC,-122.8276301,49.10433227
Zappone Trucking,"Trucking & Cartage, Excavating Contractor",,18571,56 Ave,V3S8J3,,CTC,-122.7079814,49.10436243
Van Metro Consulting Ltd,Financial Planning/Consultant,311,17750,56 Ave,V3S1K4,,CTC,-122.7304217,49.10394114
I T M Home Construction Ltd,Contractor - Construction,,14466,56 Ave,V3X1B6,,NTC,-122.8206918,49.10423565
H D Drilling,"Contractor - Drilling, Excavating, Shoring",,15926,56 Ave,V3S2J7,,NTC,-122.7809517,49.10423448
Finish Line Kinesiology,Kinesiologist - NOBILE ONLY ,,16212,56 Ave,V3S2J7,,CTC,-122.7733104,49.10423198
Collaborative Accounting Services,Bookkeeping,,14452,56 Ave,V3X0H5,,NTC,-122.821293,49.10423083
Webuyanything WS Sales Ltd,Trucking & Cartage,,13270,58 Ave,V3X2R2,,NTC,-122.8549134,49.10801992
Wineberry Fabrics ,Mail Order - Fabric,,13482,58 Ave,V3X2R4,,NTC,-122.8490181,49.1080153
Tesla Motors Canada ULC | Sales Service Delivery,Automobile Dealer/Rebuilder,,19505,Hwy 10,V3S6K1,,CTC,-122.6832319,49.10880523
Tan Garden Services,Contractor--Landscaping,,12464,Park Dr,V3V3B1,,WTC,-122.8769038,49.18700968
S F Building Services ,Contractor: General ,,12431,Park Dr,V3V3A9,,WTC,-122.877771,49.18724448
Evershine Professional Painting Ltd,Contractor - Painting,,12474,Park Dr,V3V3B1,,WTC,-122.8766767,49.18703504
D F M Technology Inc,Computer Consultant,,10043,Park Dr,V3V3A5,,WTC,-122.8750929,49.18511391
Voob Construction & Maintenance Ltd,Contractor - General Contractor,,14240,Park Dr,V3R5N9,,SCC,-122.8273766,49.20347017
A S A P Plumbing & Heating Ltd,"Plumbing/Heating Cont.,Inter-Municipal Business License Metro,Plumbing & Heating Contractor",,14362,Park Dr,V3R5P3,,SCC,-122.8240317,49.20328682
Sunshine Overall Services Inc,Contractor - Landscaping,,14363,Park Dr,V3R5P2,,SCC,-122.8240233,49.20360783
Goldrock Enterprise Ltd,Contractor - Landscaping/Excavating,,13830,Park Dr,V3R5N4,,SCC,-122.8391083,49.20544576
G l Truck & Crane Service,Trucking & Cartage,,14206,Park Dr,V3R5N9,,SCC,-122.8285632,49.20371807
Northwest Driving School Ltd,Driving School,,7738,Todd Cr,V3W7N6,,NTC,,
Turkey Party Makers Ltd,Whlse. Paper & Plastic Products,,17950,55 Ave,V3S6C8,6045761467,CTC,-122.7250558,49.10222432
Cloverdale Curling Club,Lounge,,6150,176 St,V3S4E7,6045744483,CTC,-122.7349085,49.11384222
Jet Bindery Ltd,"Bindery & Mail House,Dispatch office",101,17910,55 Ave,V3S6C8,6045761118,CTC,-122.7259133,49.10222517
Westower Communications Ltd,"Communication Tower Cont.,Construction - Communication Towers",,17886,55 Ave,V3S6C8,,CTC,-122.7264278,49.10222568
Phoenix Autobody,Auto Body Repair,12,17921,55 Ave,V3S6C4,,CTC,-122.7256988,49.10227893
M R Smith Limited ,Whlse. Bulk Petroleum,,17979,55 Ave,V3G6C4,,CTC,-122.7244555,49.1022777
Comfort Tec Industries Ltd,"Mfg. - Upholstery, Re-upholstery & Furniture Sales",9,17942,55 Ave,V3S6C8,,CTC,-122.7252273,49.10222449
Gerding Automotive Ltd,Automotive Services,4/6/,17921,55 Ave,V3S6C4,,CTC,-122.7256988,49.10227893
Delta Controls Inc,Mfg. - Building Control Solutions,,17899,55 Ave,V3S6C4,,CTC,-122.7261705,49.1022794
Silhouette Landscape Lights Ltd ,Machine shop - landscape lighting,105,17957,55 Ave,V3S6C4,,CTC,-122.7249271,49.10227817
White Rock South Surrey Taxi Ltd,Taxi Service,3,17921,55 Ave,V3S6C4,,CTC,-122.7256988,49.10227893
Fastenal Canada Ltd,Wholesale - Fasteners & Const Supplies,,9820,190 St,V4N3M9,,GTC,-122.6955104,49.18058054
A Priority Locksmiths,Lock Repair Only - No Retail Sales Permitted,11,17921,55 Ave,V3S6C4,,CTC,-122.7256988,49.10227893
Talik Industrial Services Inc,Wholesale,102,17910,55 Ave,V3S6C8,,CTC,-122.7259133,49.10222517
Extreme Products & Drilling Supplies Inc,Wholesale,102,17910,55 Ave,V3S6C8,,CTC,-122.7259133,49.10222517
Cimtech Mfg Inc ,"Manufacturing engineering prototypes; Multi-axis CNC machined parts, precision castings, sheet metal parts and opto-mechanical components",8,17942,55 Ave,V3S6C8,,CTC,-122.7252273,49.10222449
McDonald's,Restaurant,,10250,152 St,V3R6N7,,GTC,-122.8009339,49.18882597
Prostate Cancer Foundation BC,Manufacturer of Reef Knot Kits,4,17918,55 Ave,V3S6C8,,CTC,-122.7257418,49.102225
M B G Buildings Inc,Contractor - Construction,102,17957,55 Ave,V3S6C4,,CTC,-122.7249271,49.10227817
Solid Rock Steel Fabricating Co Ltd,Mfg. - Specializing in Structural Steel,,17780,Daly Rd,V4N4M5,6045811151,GTC,1,1
City Centre Dental Clinic,Professional Practitioner-Dentist,102,10252,135 St,V3T4C2,6049301314,SCC,1,1
Top King's Chinese Restaurant & Cafe,Coffee Bar,101,10294,135 St,V3T4C2,6049306688,SCC,1,1
Pro Carpet Care,Carpet Cleaning,21,13346,116 Ave,V3R0R8,,WTC,1,1
Beautyland Salon Ltd,Hair Salon,8,10302,135 St,V3T4Y8,,SCC,1,1
Guildford Printers Inc,Printer,11,13380,116 Ave,V3R0R8,,WTC,1,1
Pho Tam Restaurant,Restaurant,9,10302,135 St,V3T4Y8,,SCC,1,1
Railway Cafe The,Restaurant,1,13370,116 Ave,V3R0R8,,WTC,1,1
Luckett Wenman & Associates,Tax Consultants,204,10252,135 St,V3T4C2,,SCC,1,1
H S B C Bank Canada (135 St),Banking,,10388,135 St,V3T4Y8,,SCC,1,1
Surrey Women's Centre Society,Non Profit Society,,10075,136A St,V3T4G1,,SCC,1,1
All Star Blinds Cleaning Sales & Installation Repa,Blind Cleaning,6,13370,116 Ave,V3R0R8,,WTC,1,1
Skyview Manor,Apartment Rentals,,10188,136A St,V3T5J6,,SCC,1,1
A P T Education Center,Tutoring center for elementary to high school students,,10061,136A St,V3T4G1,,SCC,1,1
Save On Cartridge Plus,Warehouse,25,13340,116 Ave,V3R0R8,,WTC,1,1
A La Carte Woodturning,"Mfg. - Woodworking,Auto Body/Painting",66,13330,116 Ave,V3R0R8,,WTC,1,1
Wheelsport Canada,Retail Motorcycle Accessories,113,19189,Langley Bypass,V3S6K1,,CTC,1,1
Surrey Cash Mart,Cheque Cashing,105,10252,135 St,V3T4C2,,SCC,1,1
All Day All Nite,"Retail Convenience Store, Computer Time Rental",104,10252,135 St,V3T4C2,,SCC,1,1
A Taste of Punjab Restaurant Ltd,Food Primary-Class B Dining Lounge,,10009,136A St,V3T4G1,,SCC,1,1
Petals Beauty & Hair Salon Ltd,Hair Salon/Barber,,10053,136A St,V3T4G1,,SCC,1,1
Aram's Auto Repair & Sales Ltd,Auto Body/Painting,67,13330,116 Ave,V3R0R8,,WTC,1,1
Moe's Auto Services Ltd,Auto Glass & Convertible Tops,305,5327,19223 St,V3S8E5,,CTC,1,1
Westminster College Inc,Business & Technology,200,10252,135 St,V3T4C2,,SCC,1,1
Central City Fresh Slice Pizza Ltd,Restaurant - No Alcohol,101,10252,135 St,V3T4C2,,SCC,1,1
Habib Market Ltd,Groceries & Meats,,10119,136A St,V3T4G1,,SCC,1,1
Ocean Concrete,Ready Mix Concrete Plant,,12355,Musqueam Dr,V3V3T2,,WTC,1,1
Pho Hoa Hong Vietnamese Restaurant,Vietnamese Restaurant,4,10302,135 St,V3T4Y8,,SCC,1,1
Diamond Parking Ltd #4206,Parking facility,,10119,136A St,V3T4G1,,SCC,1,1
Schnitzer Steel Canada Ltd,Salvage yard - scrap metal,,12301,Musqueam Dr,V3V3T2,,WTC,1,1
Action Auto Wrecking  Ltd,Auto Wrecking Yard,,10559,120 St,V3V4G4,,WTC,1,1
Gem Towing Ltd,Towing & Storage,,2359,164 St,V3S0L8,,SSTC,1,1
G H Aluminum & Ironworks Inc,Manufacturer / Machine Shop - Railings,10,13380,116 Ave,V3R0R8,,WTC,1,1
Jellybean Auto Crafter,Auto Restoration,208,19425,No 10 (Langley Bypass) Hwy,V3S6K1,,CTC,,
Stablefly Design,Design Serv.,118,13806,Central Ave,V3T1R9,,SCC,-122.8394985,49.18916104
Eden Electric Ltd,Contractor - Electrical ,79,13766,Central Ave,V3T1R9,,SCC,-122.8408481,49.18927716
Pink Cosmos Designs,Home Crafts,22,9088,Holt Rd,V3V4H3,,WTC,-122.889864,49.16871563
Ganaan Highland Manufacturing Ltd ,Manufacturing: Design and products for bagpipes and drums ,,10155,Mary Dr,V3V3B8,,WTC,-122.8733448,49.18720264
1082780 BC Ltd,Contractor: Renovations,,10078,Mary Dr,V3V3B7,,WTC,-122.8717761,49.18580838
Bikaner Indian Cuisine &  Sweets,Restaurant - No Alcohol,109,15161,56 Ave,V3S9A5,,NTC,-122.8025301,49.10471729
Spice Kings Bistro Ltd,Restaurant - No Alcohol,102,15325,56 Ave,V3S0X9,,NTC,-122.798429,49.10524442
World Financial Group,Financial Planning/Consultant,305,14928,56 Ave,V3S2N5,,NTC,-122.8089677,49.1042299
Cora Breakfast and Lunch Surrey,Restaurant - No Alcohol,101/,15133,56 Ave,V3S9A5,,NTC,-122.8057861,49.10516994
Sweet Avenue Bakery,Bakery,135,17455,56 Ave,V3X2X6,,CTC,-122.7395975,49.10436862
Virtue Kennels,Hobby Kennel - 3 Dogs,,14246,56 Ave,V3X3A6,,NTC,-122.8276301,49.10433227
Zappone Trucking,"Trucking & Cartage, Excavating Contractor",,18571,56 Ave,V3S8J3,,CTC,-122.7079814,49.10436243
Van Metro Consulting Ltd,Financial Planning/Consultant,311,17750,56 Ave,V3S1K4,,CTC,-122.7304217,49.10394114
I T M Home Construction Ltd,Contractor - Construction,,14466,56 Ave,V3X1B6,,NTC,-122.8206918,49.10423565
H D Drilling,"Contractor - Drilling, Excavating, Shoring",,15926,56 Ave,V3S2J7,,NTC,-122.7809517,49.10423448
Finish Line Kinesiology,Kinesiologist - NOBILE ONLY ,,16212,56 Ave,V3S2J7,,CTC,-122.7733104,49.10423198
Collaborative Accounting Services,Bookkeeping,,14452,56 Ave,V3X0H5,,NTC,-122.821293,49.10423083
Webuyanything WS Sales Ltd,Trucking & Cartage,,13270,58 Ave,V3X2R2,,NTC,-122.8549134,49.10801992
Wineberry Fabrics ,Mail Order - Fabric,,13482,58 Ave,V3X2R4,,NTC,-122.8490181,49.1080153
Tesla Motors Canada ULC | Sales Service Delivery,Automobile Dealer/Rebuilder,,19505,Hwy 10,V3S6K1,,CTC,-122.6832319,49.10880523
Tan Garden Services,Contractor--Landscaping,,12464,Park Dr,V3V3B1,,WTC,-122.8769038,49.18700968
S F Building Services ,Contractor: General ,,12431,Park Dr,V3V3A9,,WTC,-122.877771,49.18724448
Evershine Professional Painting Ltd,Contractor - Painting,,12474,Park Dr,V3V3B1,,WTC,-122.8766767,49.18703504
D F M Technology Inc,Computer Consultant,,10043,Park Dr,V3V3A5,,WTC,-122.8750929,49.18511391
Voob Construction & Maintenance Ltd,Contractor - General Contractor,,14240,Park Dr,V3R5N9,,SCC,-122.8273766,49.20347017
A S A P Plumbing & Heating Ltd,"Plumbing/Heating Cont.,Inter-Municipal Business License Metro,Plumbing & Heating Contractor",,14362,Park Dr,V3R5P3,,SCC,-122.8240317,49.20328682
Sunshine Overall Services Inc,Contractor - Landscaping,,14363,Park Dr,V3R5P2,,SCC,-122.8240233,49.20360783
Goldrock Enterprise Ltd,Contractor - Landscaping/Excavating,,13830,Park Dr,V3R5N4,,SCC,-122.8391083,49.20544576
G l Truck & Crane Service,Trucking & Cartage,,14206,Park Dr,V3R5N9,,SCC,-122.8285632,49.20371807
Immaculate Concrete Inc,Contractor - Concrete Forming,,5851,148 St,V3S3B9,6043081130,NTC,-122.8124968,49.10917362
S & R Sawmills Ltd,Mfg. - Sawmills & Custom Cutting,,18887,98A Ave,V4N4E1,6048880022,GTC,-122.6996837,49.18178409
Valley View Funeral Home & Cemetery,Cemetary,,14644,72 Ave,V3S2E7,6042390152,NTC,-122.8176721,49.13356487
Reliance Foundry Co Ltd,Manufacturing,207,6450,148 St,V3S7G7,6045924333,NTC,-122.8110741,49.11969649
Roaths Pawn Shop Ltd,Pawn Shop,,13573,King George Hwy,V3T2V1,6045844010,SCC,-122.8460923,49.19973553
99 Nursery & Florist Inc,"Nursery & Florist, Giftware",,9376,King George Hwy,V3V5W3,6045846555,WTC,-122.8452823,49.17330682
Cloverdale Paint Inc,Retail Merchants,,6950,King George Blvd,V3W4Z1,6045961736,NTC,-122.8451521,49.12938269
Venus Cleaners (176 St),Dry Cleaner (no coin operated machines),,5758,176 St,V3S4C8,6045744355,CTC,-122.7347778,49.10701898
Prime Collision Ltd,Auto Body Repair,,14746,108A Ave,V3R1W8,6045852301,GTC,-122.8138983,49.19948801
Avis Car Inc,Auto & Truck Rental Service,,10305,King George Blvd,V3T2W6,6046687100,SCC,-122.8457157,49.18996016
Cam Chain Co Ltd (128 St),Mfg. - Chains for Sawmill & Woodworking Machinery,,8355,128 St,V3W4G1,6045991522,NTC,-122.8682515,49.15429999
Pharmasave 179,Retail Merchants - Drug Store,,10654,King George Blvd,V3T2X3,6045814431,SCC,-122.8449248,49.19613355
Crescent Beach Marina Co  Ltd,Marina,,12555,Crescent Rd,V4A2V4,6045389666,SSTC,-122.8713307,49.05628746
Dryco Drywall Supplies Ltd,Building Supplies,,8515,148 St,V3S3G5,6045915141,FTC,-122.8126829,49.15761918
Cedar Hills Animal Hospital,Veterinary Serv.,,12863,96 Ave,V3V6V9,6045837387,SCC,-122.8653458,49.17730982
Hugh & McKinnon Realty Ltd,"Real Estate Office, Property Mgmt .",,14007,16 Ave,V4A1P9,6045311909,SSTC,-122.8339427,49.03143487
Garaventa Canada Ltd,"Mfg. - Inclined Stair Lifts, Wheelchair Elevators & Aerial Tramways",,18920,36 Ave,V3Z0P6,6045940422,SSTC,-122.7003096,49.0672003
A & A Contract Customs Brokers,Customs Broker,101,120,176 St,V3S9S2,6045427264,SSTC,-122.7349152,49.00430113
Art Knapp Plantland (King George Hwy),Retail - Nursery & Garden Products,,4391,King George Hwy,V4P2J9,6045969201,SSTC,-122.8209286,49.08170578
Jim Pattison Toyota,Automotive Service/Body Repair,,15389,Guildford Dr,V3R0H9,6045972424,GTC,-122.7950706,49.19677339
Southridge Building Supplies Ltd,Retail Merchant - Lumber,,17444,No 10 (56 Ave) Hwy,V3S1C3,6045762113,CTC,-122.739628,49.10367472
Prospera Credit Union,Credit Union,102,1688,152 St,V4A4N2,6045388200,SSTC,-122.8008931,49.03243524
Lookout Housing and Health Society,Apartment Rentals,,10689,135A St,V3T5B7,6045898678,SCC,-122.8471032,49.19690819
Hunters Garden Centre Inc,Retail - Nursery Supplies,,15175,72 Ave,V3S2G3,6045902431,NTC,-122.8019849,49.13387796
Hallmark Air Conditioning A Div. Of Ainsworth Inc,Heating Air Conditioning & Refrigeration,104,17741,65A Ave,V3S1Z8,6045761355,CTC,-122.7310256,49.12132995
Sunnyside Evergreen Pharmacy,Retail Merchant - Drug Store,,2397,King George Hwy,V4A5A4,6045364404,SSTC,-122.7946148,49.04517332
Canadian Tire Associate Store #622,Retail Hardware & Auto Accessories,,3059,152 St,V4P3K1,6045424317,SSTC,-122.8021014,49.0574412
K G Wardstrom - Industrial Gas,Industrial Gas Services Cont.,211,9654,192 St,V4N4C6,6048882077,GTC,-122.6900169,49.17800549
A A C Woodworking & Mfg Ltd,Mfg. - Custom Woodworking & Manufacturing,,13315,72 Ave,V3W2N5,6045943288,NTC,-122.853593,49.13422407
7 Days Seafoods & Groceries,Seafood & Groceries,,10711,King George Hwy,V3T2X6,6045852258,SCC,-122.8456613,49.197308
AccessSMT Holdings Ltd,General Construction Contractor,,13139,80 Ave,V3W3B1,6045915111,NTC,-122.8591061,49.14838026
Greenbarn Potters Supply Ltd,Retail & Whlse. Pottery Supplies,,9548,192 St,V4N3R9,6048883411,GTC,-122.690271,49.17597817
Budget Brake & Muffler Auto Centres ,Brake & Muffler Serv.,,13718,104 Ave,V3T1W4,6045888588,SCC,-122.8421809,49.19140677
Scott Spring Ltd,"Auto & Truck Suspension,Vending Machine",B,10805,Scott Rd,V3V4G5,6045802876,WTC,-122.88309,49.19904574
Bevco Sales International Inc,Mfg. - Conveyor Systems,,9354,194 St,V4N4E9,6048881455,GTC,-122.6847373,49.17294277
Columbia Collision Repairs Ltd,Auto Body & Repair,101,7945,132 St,V3W4N2,6045968222,NTC,-122.8570565,49.14705123
Johnston Meier Insurance Agencies Group,Insurance Agency,1276,10355,152 St,V3R7C1,6045816121,GTC,-122.8042654,49.19192586
Hallmark Ford Sales Ltd,"Auto Sales/Serv.,  Auto Body Repair",,10025,152 St,V3R4G6,6045841222,GTC,-122.8012132,49.18453164
Fitness World ,Fitness Centre,,13821,Central Ave,V3T5B5,6045881517,SCC,-122.8393583,49.18981624
Avalon & Surrey Funeral Home & Cremation Centre,Funeral Home,,13288,108 Ave,V3T2J6,6045814401,SCC,-122.8543665,49.1987819
Connect Hearing Surrey Central,Hearing Aid Consultant,,10237,King George Blvd,V3T2W6,6045857414,SCC,-122.8456895,49.18876422
Trowel Trades Accessories Ltd,Mfg. - Building Material,,2158,191 St,V3S3M3,6045366100,SSTC,-122.6942973,49.04121505
White Rock Sports & Imports,Auto Sales/Serv.,,3601,King George Hwy,V4P1B6,6045364533,SSTC,-122.8212718,49.06748982
White Rock Veterinary Hospital Ltd,Veterinarian,,2460,152 St,V4P1M8,6045367618,SSTC,-122.8009542,49.04671132
M J M Furniture Center Ltd (77 Ave),Retail Furniture,,13570,77 Ave,V3W6Y3,6045969901,NTC,-122.8465637,49.14253883
Aqua Pak Industries Ltd.,Mfg. - Styrofoam Containers,,7398,132 St,V3W4M7,6045902886,NTC,-122.8564551,49.13751614
Ultimate Performance Ltd,Automotive Repair,71,15515,24 Ave,V4A2J4,6045366444,SSTC,-122.7926614,49.04577262
Carillon Music Ltd,"Retail - Pianos, Lessons & Music Accessories",,7050,King George Hwy,V3W4Z9,6045911161,NTC,-122.8453091,49.13059181
Skyline Motors,Automotive Repair,,7237,King George Blvd,V3W5A7,6045915222,NTC,-122.8459236,49.13439293
Fraser Heights Animal Hospital,Professional Practitioner-Veterinarian,,15585,104 Ave,V3R1N9,6045884161,GTC,-122.7902142,49.19174689
Pine Lighting Ltd,Whlse. & Retail Lighting,,6898,King George Blvd,V3W4Z9,6045918895,NTC,-122.8451639,49.12795016
Schmidt Berg & Company,Certified General Accountants,101,15399,102A Ave,V3R7K1,6045888585,GTC,-122.7956937,49.18912067
Cascade Christian Counselling Assn,Psychotherapy Counselling,201,14980,104 Ave,V3R1M9,6045851411,GTC,-122.8071734,49.19131445
M B E Auto Service,Automotive Repair Service,109,13375,76 Ave,V3W6J3,7785656502,NTC,-122.8519335,49.1410544
Unique Custom Upholstery,Upholstery Of Restaurant Booths,120,12960,84 Ave,V3W1K7,6045973888,NTC,-122.8640189,49.1551914
Scottsdale Lanes,Bowling Center & Lounge,,12033,84 Ave,V3W3G4,6045963924,NTC,-122.8889887,49.15611731
Purity Casting Alloys Ltd,Custom Alloying,15,18503,97 Ave,V4N3N9,6048880181,GTC,-122.7096985,49.17918956
Fruiticana #22,Grocery Store,104,7028,120 St,V3W3M8,6045908864,NTC,-122.8900449,49.13087217
Old Surrey Restaurant,Restaurant,,13483,72 Ave,V3W2N7,6045962313,NTC,-122.8488885,49.13375295
King George Automotive 2017 Ltd,Automotive Repair,9,7788,132 St,V3W0H6,6045967404,NTC,-122.8565082,49.14406127
Fresgo Inn Restaurant,Restaurant,,10102,King George Hwy,V3T2W4,6045880878,SCC,-122.8450997,49.18621766
Altec Industries Ltd,Auto Repair Serv.,,12352,84 Ave,V3W0J5,6045970355,NTC,-122.8804918,49.1555839
Bank of Nova Scotia (Guildford Town Centre),Banking,,2301,Guildford Town Centre,V3R7B9,6045863200,GTC,-122.8040027,49.18941005
Guildford Golf & Country Club,"Golf Course, Lounge & Banquet Facilities",,7929,152 St,V3S3M5,6045941435,NTC,-122.801385,49.14458309
Maxwell Floors Ltd,"Contractor - Flooring Installation, Commercial flooring",,8441,160 St,V4N0V6,6045972423,FTC,-122.7790814,49.15629209
Pantry Restaurant The,Dining Room,2309,10355,152 St,V3R7B9,6045841090,GTC,-122.8042654,49.19192586
B & B Bearing & Electric Motor Ltd,"Whlse. Bearings, Power Transmission & Electric Motors & Repairs",10,7788,132 St,V3W0H5,6045913371,NTC,-122.8565083,49.14406127
Scottsdale Veterinary Hospital,Veterinary Clinic,,7072,120 St,V3W3M8,6045902121,NTC,-122.8900789,49.13168242
Newton Service,Gas Station,,13573,72 Ave,V3W2N9,6045967685,NTC,-122.8462413,49.13373237
Commander Warehouse Equipment Ltd,"Warehouse - Equip.,Instaallation of shelves/ racking ,Installation of shelving  / racking",,5225,192 St,V3S8E5,6045745797,CTC,-122.6934462,49.09827556
Naka Welding,Welding & Light Fabricating,304,13395,76 Ave,V3W6K2,6045974977,NTC,-122.8517127,49.14104962
John Bresnick & Associates,Professional Practitioner-Land Surveyor,113,13302,76 Ave,V3W2W1,6045918822,NTC,-122.8542721,49.14074119
Clover Inn Beer & Wine Store,Beer & Wine Store,413,6466,176 St,V3S4G3,6045766751,CTC,-122.7345741,49.11987487
Bozzini's Restaurant,Dining Lounge,105,13655,104 Ave,V3T1W3,6045886880,SCC,-122.8437312,49.19173246
Celltex Collision,Auto Body Repair,02-Jan,12334,84 Ave,V3W0J5,6045979774,NTC,-122.8809979,49.15559585
Peterbilt Pacific Inc,"Sales/Serv .Trucks,Lunch Room at RCMP,Vending Machine",,19470,96 Ave,V4N4C2,6048881411,GTC,-122.6831298,49.17680692
White Rock Chrysler Dodge Jeep Ram,Automotive Dealership,7,3050,King George Blvd,V4P1A2,6045319156,SSTC,-122.8081022,49.05807362
Spice Villa Indidan Cuisine & Bar ,Neighbourhood Pub,229,7115,138 St,V3W7T9,7789080122,NTC,-122.8391811,49.1320397
Gescan Electrical Distributors,Whlse.  - Electrical,201,13060,80 Ave,V3W3B2,6045965515,NTC,-122.8602604,49.14800455
S C Tools Ltd,"Metal Cuting Tools, Machine Tools & Accessories",105,13463,78 Ave,V3W0A8,6045918818,NTC,-122.8492779,49.14465788
Gold Key Sales and Lease Ltd,Automotive Servicing,,19545,No 10 (Langley Bypass) Hwy,V3S6K1,6045347431,CTC,-122.68156,49.10945381
River Cable Ltd,Mfg. - Wire Rope,,11406,132A St,V3R7S2,6045804636,WTC,-122.8549411,49.2102349
Alpine Non-Ferrous Foundry of Canada Ltd,Mfg. - Aluminum & Bronze Castings,,8657,132 St,V3W4P1,6045968080,NTC,-122.8589176,49.16011821
Wheelhouse Beer & Wine Store,Liquor Licensee Retail Store,,12911,96 Ave,V3V7K6,6045885162,SCC,-122.8639829,49.17723513
Openroad Toyota Peace Arch,Automobile Dealer,,3174,King George Blvd,V4P1A2,6045312916,SSTC,-122.8108891,49.05996717
Neighbourhood Auto Glass & Upholstery Ltd,Auto Glass Install & Upholstery,202,5726,Landmark Way,V3S7H1,6045333398,CTC,-122.683812,49.10673106
Boston Pizza Guildford,Restaurant,,15125,100 Ave,V3R9P4,6045813600,GTC,-122.803407,49.18440821
Guildford Pet Foods,Retail Pet Food & Supplies,,15585,104 Ave,V3R1N9,6045884115,GTC,-122.7902142,49.19174689
Phaser Fire Protection,Contractor - Sprinkler,2,19080,96 Ave,V4N3R3,6048880318,GTC,-122.6944152,49.1768378
Parkinson's Heating Ltd,"Heating Cont.,Contractor - Plumbing/Heating ",,7566,134A St,V3W7J1,6045998444,NTC,-122.8499882,49.14042166
East West Fabrics Inc,Retail Merchant - Clothing,106,7028,120 St,V3W3M8,6045908861,NTC,-122.8900449,49.13087217
Precision Metals Ltd,Manufacturer - Roofing Products,,8075,132 St,V3W4N5,6045946001,NTC,-122.855716,49.14956207
The Fin Liquor Store,Cold Beer & Wine Store,229,7115,138 St,V3W7T9,6045960005,NTC,-122.8391811,49.1320397
Longley Electric Co Ltd,"Mfg. - Sheet Metal, Industrial Fans & Heaters",,7911,128 St,V3W4E7,6045916426,NTC,-122.8682328,49.14659995
Langley Chrysler Jeep,"Sales, Serv. & Leasing Auto",,19418,Langley Bypass,V3S7R2,6045345355,CTC,-122.6851814,49.10684254
Wolfe's Langley Mazda,"Sales, Serv. & Leasing Auto",,19360,Langley Bypass,V3S7R2,6045340181,CTC,-122.6864757,49.10613486
Ron-Sons Torch Repairs Sales Ltd,Whlse. Welding Supplies & Welding Repairs,1,9677,192 St,V4N4C7,6048884481,GTC,-122.6906507,49.17831074
Magicuts  5478,Beauty Salon,190,7488,King George Hwy,V3W0H9,6045995868,NTC,-122.8452552,49.13853724
New Image Millwork Ltd,Mfg. - Cabinets,105,13375,76 Ave,V3W6J3,6045961999,NTC,-122.8519335,49.1410544
Belfor Canada Inc,General Construction Contractor,D,7677,132 St,V3W4M8,6045999980,NTC,-122.8570467,49.14292372
Amos Ferguson Manor,Seniors Housing Apartment Rentals,101,8243,152 St,V3S3M6,6045901522,FTC,-122.8016299,49.15263108
Oto Hearing Products Ltd,"Mfg. - Hearing Aid, Ear Molds, Ear Defenders,Wholesale,Recreational Facility,Warehouse",214,12837,76 Ave,V3W2V3,6045901211,NTC,-122.8666709,49.141185
Refillink,Importer & Whlse. Home Accessories,113,12827,76 Ave,V3W2V3,6045941123,NTC,-122.867155,49.14117557
Homecraft Manufacturing Corp,"Light Metal Fabrication, CNC Equipment, Sauna Heaters & Controls and Equipment",216,9654,192 St,V4N4C6,6048883403,GTC,-122.6900169,49.17800549
Greater Vancouver Community Credit Union,Credit Union,,15280,101 Ave,V3R4G5,6045844434,GTC,-122.7986031,49.18597274
Macy's Blinds Manufacturing Co Ltd,Manufacturer - Venetian Blinds,,12995,80 Ave,V3W3B1,6045991928,NTC,-122.8627474,49.14833004
Pro Draft Incorporated,Drafting Consultant,205,12332,Pattullo Pl,V3V8C3,6045896425,WTC,-122.8803459,49.20402976
Peter F Pook Insurance (King George Hwy),Insurance Agency,2325,10153,King George Highway,V3T2W1,6045810404,SCC,-122.8474019,49.18559446
H Y Engineering Ltd,"Engineering Office, Civil Engineering",200,9128,152 St,V3R4E7,6045831616,FTC,-122.8010668,49.16881906
International Gems Inc,Retail Jewelry & Giftware,120,1959,152 St,V4A9E3,6045363622,SSTC,-122.8014669,49.03727504
Jonker Honda,Automobile Sales,,19515,No 10 (Langley Bypass) Hwy,V3S6K1,6045306281,CTC,-122.6825672,49.1091219
Bender Painting & Decorating Ltd,Painting Cont.,204,12837,76 Ave,V3W2V3,6045918000,NTC,-122.8666709,49.141185
Latoplast Ltd,Whlse. Safety Supplies,208,7889,132 St,V3W4N2,6045919773,NTC,-122.8570756,49.14629384
Arctic Glacier Inc,Mfg. - Ice Products,,9679,186 St,V4N3N8,6048884311,GTC,-122.7079196,49.17832035
L J Custom Sheet Metal Ltd,Mfg. - Sheet Metal Products,,17940,Roan Pl,V3S5K1,6045745330,CTC,-122.7251025,49.10089055
Keystone Forest Products Ltd,Whlse. Lumber,,11598,132A St,V3R7S2,6045802234,WTC,-122.8547266,49.21303239
Walrus Truck & Crane Services Ltd,Crane & Cartage,,10979,Olsen Rd,V3V3S9,6045802626,WTC,-122.8915487,49.20209869
Mercana Furniture & Decor,Manufacturer - Picture Frames,,3250,189 St,V3Z1A8,6045361666,SSTC,-122.7001838,49.06182321
Home Hardware Ltd,"Hardware,Retail Merchant",101,1645,140 St,V4A4H1,6045366564,SSTC,-122.834484,49.03205692
Allondale Animal Hospital ,"Veterinarian, Small Animals",,14715,108 Ave,V3R1V9,6045810491,GTC,-122.8149991,49.19889111
Impex Canada,Wholesaler,101,12815,85 Ave,V3W0K8,6045946862,NTC,-122.8674407,49.15759827
Docksteader Sports Ltd,Retail - Sporting Goods,101,2381,King George Hwy,V4A5A4,6045366776,SSTC,-122.7941418,49.04479007
Iris Sun & Sport,Retail Merchant - Optical Wear,,1167,Guildford Town Centre,V3R7B7,6045895350,GTC,-122.8040027,49.18941005
Cullen Diesel Power Ltd,Diesel Engine Repair & Sales,,9300,192 St,V4N3R8,6048881211,GTC,-122.6900802,49.17132712
Canadian Inn,Motel,,6528,King George Hwy,V3W4Z3,6045940010,NTC,-122.8451081,49.12126855
Trans Continental Textile Recycling Ltd,Clothing Processing,,13120,78A Ave,V3W1P4,6045922845,NTC,-122.8591926,49.14548586
T D Canada Trust City Centre,Bank,,10435,King George Hwy,V3T2W7,6045862000,SCC,-122.8456473,49.19224354
Finning Ltd (Truck Engine Service),"Whlse. Cat Engine Parts, Engine Serv.,Class 8 truck & trailer sales",,19498,92 Ave,V4N4G7,6048883406,GTC,-122.6830005,49.16999663
K V Piano Man Ltd,"New & Used Pianos, Sales/Serv.",13,15531,24 Ave,V4A2J4,6045381847,SSTC,-122.7920343,49.04577185
Softball City,"Stadium Class ""E"" Liquor License",,2201,148 St,V4A9P5,6045313220,SSTC,-122.8147946,49.04327446
Michael & Young Flyfishing Supplies Inc,Retail Merchant - Flyfishing Supplies,,10484,Whalley Blvd,V3T4H5,6045882833,SCC,-122.8420854,49.19321409
Carpet Centre The,Retail Carpets,108,15551,Fraser Hwy,V3S2V8,6045899696,FTC,-122.7912586,49.16241879
Dogwood Campgrounds,"Grocery Store, Camp Grounds & R V Park, Laundromat, Arcade, Pool & Hot Tub",,15151,112 Ave,V3R6G8,6045835585,GTC,-122.8016613,49.20619471
Ed Schram Motors Ltd (76 Ave),Auto Repair,112,13375,76 Ave,V3W6J3,6045996081,NTC,-122.8519335,49.1410544
Four Star Electric Ltd,Contractor - Electrical,221,12837,76 Ave,V3W2V3,6045902424,NTC,-122.8666709,49.141185
Walia Insurance Agencies Ltd (96 Ave),Insurance Agency,2,12830,96 Ave,V3V6A8,6045887188,WTC,-122.8670944,49.17696905
Clover Collision Repairs (2013) Ltd,Auto Body Repair,4,5422,176 St,V3S4C3,6045766016,CTC,-122.734787,49.1009071
Coast Capital Savings Federal Credit Union,Financial Institution,10,9900,King George Blvd,V3T2W1,6045177000,SCC,-122.8449941,49.18220838
Canada Engines Ltd,Remfg. & Inst. Auto & Light Truck Engines,A,12345,114 Ave,V3V3N6,6045801050,WTC,-122.8797243,49.21002223
Convoy Supply Ltd,"Whlse. Roofing, Vinyl Siding & Fibreglass Insulation",,8183,130 St,V3W7X4,6045915381,NTC,-122.8625431,49.15160935
Robin Hood Beer & Wine Store,Beer & Wine Store,,13468,72 Ave,V3W2N8,6045946265,NTC,-122.8493956,49.13342123
FirstOnSite Restoration Limited,"Providing full range of disaster restoration cleaning services,Contractor - Restoration ",17,19272,96 Ave,V4N4C1,6045901440,GTC,-122.6880597,49.17676709
Pan American Nursery Products Inc,Whlse. Nursery Stock,,5151,152 St,V4P2J9,6045768641,NTC,-122.8015764,49.09660892
Coastwise Processors Inc,Mfg. - Seafood Processing,11,9548,192 St,V4N3R9,6048881992,GTC,-122.690271,49.17597817
Wingtat Game Bird Packers Inc,Game Bird Processing Plant,,9752,186 St,V4N3N7,6048820054,GTC,-122.7074045,49.17968467
Vancouver Axle & Frame Ltd,Truck & Auto Repair,,19548,96 Ave,V4N4C3,6048825112,GTC,-122.6811907,49.17680438
Guildford Station Pub,Neighbourhood Pub,,10176,154 St,V3R4J6,6045897668,GTC,-122.7950644,49.18758872
Dr Martin R Aidelbaum Inc,Oral & Maxillofacial Surgeon,404,15127,100 Ave,V3R0N9,6045897000,GTC,-122.8031241,49.18523907
Semiahmoo Physiotherapist Corporation,Physiotherapy,680,15355,24 Ave,V4A2H9,6045318080,SSTC,-122.7975044,49.04583671
Purba Custom Furniture Mfg Ltd,"Mfg. - Furniture
Units A, B, C & D",A,8065,130 St,V3W7X4,6045915435,NTC,-122.8624759,49.14929776
Laser Valley Technologies Corp,Recharge Toner Cartridges,1,9761,192 St,V4N4C7,6048887085,GTC,-122.690633,49.17987575
Cole International,"Custom Broker,Vending Machine",201,17637,1 Ave,V3S9S1,6045381512,SSTC,-122.7336964,49.00418376
Chocolaterie Bernard Callebaut,Retail - Chocolates,240,15355,24 Ave,V4A2H9,6045316777,SSTC,-122.7975044,49.04583671
Clydesdale Inn,"Motel, Pub & Restaurant",,17630,56 Ave,V3S1C5,6045762826,CTC,-122.7340981,49.10399668
P C B Highway Sufference Warehouse,Trucking Serv.,155,17735,1 Ave,V3S9S1,6045381566,SSTC,-122.731587,49.00405593
Ocean Park Automotive Ltd,Automotive Repair Service,,3635,King George Blvd,V4P1B6,6045314835,SSTC,-122.8217221,49.0678829
Basant Motors Ltd,Automobile Sales,,16315,Fraser Hwy,V4N0G1,6045727880,FTC,-122.7699316,49.15416976
Margranite A Division of C&S Group Operations Ltd ,Mfg. - Granite Tile,,19135,94 Ave,V4N3S4,6048883161,GTC,-122.6926291,49.17354657
Wardan Enterprises Ltd,"Dist. Furnace Oil,Contractor - Fire Protection",,13181,116 Ave,V3R2S8,6045800002,WTC,-122.8568509,49.2136324
First West Credit Union,Bank,710,3061,152 St,V4P3K1,6045397015,SSTC,-122.8021027,49.05755824
Canada Trust (72 Ave),Banking,,13650,72 Ave,V3W2P3,6045728188,NTC,-122.8439026,49.13337599
B & W Insurance Agency (Fraser Hwy),Insurance Agency,,16007,Fraser Hwy,V4N0G2,6045976555,FTC,-122.7785357,49.15745756
Applied Science Technologists & Technicians of BC,Non Profit - Professional Association,,10767,148 St,V3R0S4,6045852788,GTC,-122.8127398,49.19804552
A B C Metals,Scrap Metal Recycling,,19355,54 Ave,V3S8E5,6045149411,CTC,-122.6864431,49.10109319
Lawrenson Walker Realty Advisors Ltd,Real Estate Appraisal Consultant,200,1678,128 St,V4A3V3,6045351494,SSTC,-122.8672643,49.03261228
Lifelabs B C LP,Medical Laboratory,105,1656,Martin Dr,V4A6E7,6045916717,SSTC,-122.8050313,49.03206461
Adams Beverages Ltd,Mfg. - Soft Drinks,60,13325,115 Ave,V3R0R8,6045806811,WTC,-122.8530554,49.21175609
Big Gary's Vac Wholesale,Retail - Vacuum Cleaners & Repair,600,15355,24 Ave,V4A2H9,6045317614,SSTC,-122.7975044,49.04583671
Excell Battery Company,Wholesale - Batteries,133,18525,53 Ave,V3S7A4,6045755011,CTC,-122.7090156,49.09906465
Surrey Monument Co 1992 Ltd,Manufacturer - Monuments,,10324,120 St,V3V4G1,6045828000,WTC,-122.8898744,49.19034321
Metro Waste Paper Recovery Inc,Multi-Material Processing,,12345,104 Ave,V3V3H2,6045894385,WTC,-122.8831523,49.19336116
Western Natural Gas Products Ltd,"Mfg. - Brass Assembly/Gas Regulator Sales,Wholesale,Cabinet Doors,Woodworking",8,13015,84 Ave,V3W1B3,6045991900,NTC,-122.8620631,49.15571126
Wilson Properties Inc,Property Mgmt.,,18946,98 Ave,V4N3R6,6048884242,GTC,-122.6981827,49.18052894
Horizon West Insurance Services Ltd,Insurance Agency,405,16033,108 Ave,V4N1P2,6049519488,GTC,-122.7777544,49.1989669
Hub International Insurance Brokers,General Insurance & Autoplan,,13630,72 Ave,V3W2P3,6045969571,NTC,-122.8443912,49.13337116
Maple Leaf Self Storage,Self Storage,,5758,Landmark Way,V3S7H1,6045331030,CTC,-122.6823738,49.10747051
Lark Projects Ltd.,Contractor - Construction,1500,13737,96 Ave,V3V0C6,6045762935,SCC,-122.842751,49.17720977
D N R Towing Inc,Towing - With Storage,,10671,Timberland Rd,V3V3T3,6045800005,WTC,-122.8974492,49.19649615
Peace Portal Golf Course,Par 3 Golf Course,,17065,4 Ave,0,6045384818,SSTC,-122.7508288,49.01136299
F & G Delivery Ltd,Trucking,,9324,192 St,V4N3R8,6048885150,GTC,-122.6903047,49.17231349
Cedar Hills Pet Supplies & Grooming,Retail Pet Supplies & Grooming,,12859,96 Ave,V3V6V9,6045839335,SCC,-122.8655142,49.17731308
Park Deroche Inc,Industrial Painting & Sandblasting,B,10095,179 St,V4N4J6,6045836758,GTC,-122.7258532,49.18602295
Bank Of Nova Scotia ,Bank,201,16033,108 Ave,V4N1P2,6045863100,GTC,-122.7777544,49.1989669
Varsteel Specialty Metals (Surrey) a div of Varsteel Ltd,Mfg. & Dist. of Metal Products,104,19433,96 Ave,V4N4C4,6048829344,GTC,-122.6840319,49.17776228
Stengar Homes Ltd,Residential Cont.,11,13478,78 Ave,V3W8J6,6045908128,NTC,-122.849141,49.14433962
Bleszynski Dr Maria,Physician,211,13710,94A Ave,V3V1N1,6045838334,WTC,-122.842893,49.17453131
Chase Auto Body Supplies,"Whlse. Auto Paint & Body Supplies,Snowmobile Repairs,Millwork",13,19257,Enterprise Way,V3S6J8,6045305622,CTC,-122.6896507,49.10795711
Kekinow Native Housing Society (140 St),Housing - Non Profit,,7561,140 St,V3W2N5,6045915299,NTC,-122.8347787,49.14013284
European Sharpening,Sharpening Serv. & Retail Blades,2,8311,129 St,V3W0A6,6045908618,NTC,-122.8658139,49.15385969
AI Industries,Mfg. - Miscellaneous & Structural Steel Fabrication & Welding,,12349,104 Ave,V3V3H2,6045832171,WTC,-122.881358,49.19255692
Atwater Insurance,Insurance Agency,107E,1711,152 St,V4A4N3,6045316631,SSTC,-122.801669,49.0331143
Blue Steel Ltd,"Reinforcing, Rebar Steel Cont.,General Construction Contractor",,11426,132A St,V3R7S2,6045808236,WTC,-122.854808,49.21046456
Superior City Services Ltd,"Contractor - Street Cleaning,Contractor - Street Cleaning, Hydra Excavation",,15151,64 Ave,V3S1X9,6045913434,NTC,-122.8023706,49.11923232
National Silicates Ltd,Mfg. - Sodium/Magnesium Sulphate,,8160,130 St,V3W8J9,6045960806,NTC,-122.8620405,49.15149297
South Fraser Stairs Ltd,"Mfg. - Staircases, Railings",3,19110,96 Ave,V4N3R3,6048887789,GTC,-122.6931809,49.17682471
Delta Controls Inc,Mfg. - Building Automation Systems,,17850,No 10 (56 Ave) Hwy,V3S1C7,6045747790,CTC,-122.7277503,49.10399442
Blue Max Lighting & Emergency Eqpt Ltd,Electrical Installation & Repair,,18446,53 Ave,V3S7A4,6045744062,CTC,-122.7112526,49.09890618
Falcon Equipment Ltd,"Sales/Serv/Rental Skid Loaders, Crane & Hydraulic Truck Equipment Repair,Tool & Equipment Rentals,Crane & Hydraulic Equipment Repair",,18412,96 Ave,V4N3P8,6048885066,GTC,-122.7122437,49.17681275
A C R Systems Inc,Mfg. - Electronic Data Logging Equipment,201,15110,54A Ave,V3S5X7,6045911128,NTC,-122.8027089,49.10151119
Subway,"Restaurant - Subway Sandwich Shop,Restaurant - No Alcohol",163,10070,152 St,V3R8X8,6046573087,GTC,-122.8005953,49.18541427
Sherwin Williams Company #8872 The,Retail Paint & Wallpaper,100,8888,152A St,V3R0V7,6045896022,FTC,-122.7994144,49.16418147
Bank of Nova Scotia (152A Steet),Banking,180,8888,152A St,V3R0V7,6046683000,FTC,-122.7994144,49.16418147
Nu Glass Projects Ltd,Glazing Contractor - Glass Installation,7,19089,94 Ave,V4N3S4,6048881331,GTC,-122.6936235,49.17355569
Nu Brite Industries Inc,Auto Wheel Repair & Metal Polishing,3,9535,190 St,V4N3S1,6048883630,GTC,-122.6963674,49.17589233
Blueridge Engineering Ltd,Professional Practitioner-Engineer,209,17660,65A Ave,V3S5N4,6045381223,CTC,-122.7339008,49.12099735
Alliance Principle Ingredients Corporation,Wholesale - Pharmaceutical Goods,101,5712,192 St,V3S2V7,6045761130,CTC,-122.6908721,49.10655777
Park Dental Group,Dental Office,,19565,Fraser Hwy,V3S6K7,6045305353,CTC,-122.6808396,49.11459777
G W Leasing Inc,Warehouse - Communication Equipment,101,19005,94 Ave,V4N3S4,6048882500,GTC,-122.6956034,49.17355311
Eurospec Autobody 2001 Ltd,Auto Body Shop,03-Feb,13136,84 Ave,V3W1J1,6045919744,NTC,-122.8586539,49.15520396
Fleetwood Sports & Rehab Physiotherapist Corporation,Professional Practitioner-Medical/Physiotherapy,100,15129,100 Ave,V3R9P4,6045815236,GTC,-122.8027076,49.18441016
E Sands & Associates Inc,Trustee In Bankruptcy & Bankruptcy Services,203,10366,136A St,V3T5R3,6045835499,SCC,-122.8430997,49.19098569
Transwest Roofing Ltd,Contractor - Roofing/Sheetmetal,,13415,Comber Way,V3W5V8,6045967448,NTC,-122.8510732,49.13430712
Cost Plus Painting & Decorating Inc (162 St),"Painting Cont., Contractor - Painting",110,8484,162 St,V4N1B4,6045975218,FTC,-122.7730625,49.15708695
McCann Equipment Ltd,Tool Rentals & Repairs,1,7533,135 St,V3W0N6,6045964077,NTC,-122.8486103,49.13969941
Newmac Animal Feeds Ltd,Retail Pet Foods & Live Stock Feeds,5,17967,56 Ave,V3S1E2,6045762848,CTC,-122.7250269,49.10433763
National Money Mart,Cheque Cashing Convenience Store,,12788,96 Ave,V3V7H7,6049305905,WTC,-122.8686014,49.17702497
United Oil Services,"Underground Abandoned Fuel, Oil Tank Disposal & Dust Spraying Cont.",,13181,116 Ave,V3R2S8,6045802132,WTC,-122.8568509,49.2136324
Coast Capital Savings Federal Credit Union,Financial Services,103,1797,152 St,V4A4N3,6045177000,SSTC,-122.8014649,49.03448175
W H Tarpmaster Manufacturing Ltd,Mfg. - Tarpaulins,403,9775,188 St,V4N3N2,6048881649,GTC,-122.7015205,49.18021661
Precision Gutters Ltd,"Gutters & Sheet Metal Fabrication, Contractor - Construction/Gutters",7,9515,190 St,V4N3S1,6048885112,GTC,-122.69636,49.17544397
Fast Track Floors Ltd,Commercial Flooring Inst.,23,19257,Enterprise Way,V3S6J8,6045333278,CTC,-122.6896507,49.10795711
Wal Mart Canada Inc,"Department Store & Auto Repair,Vending Machine",,1000,Guildford Town Centre,V3R7C3,6045811932,GTC,-122.8040027,49.18941005
Diamond Carpet Centre Ltd,"Whlse. Carpets,Flooring installation - Carpet & Laminate,Flooring installation - Carpet, Laminate",102,7750,128 St,V3W0R6,6045991694,NTC,-122.8676534,49.14358109
Pacific Group,"Custom Broker for Air, Ocean, Truck Freight & Wharf Housing",101,17637,1 Ave,V3S9S1,6045381566,SSTC,-122.7336964,49.00418376
Shield Metal Manufacturing Ltd,Mfg. - Stainless Steel Elbows,,12694,82 Ave,V3W3G1,6045947571,NTC,-122.8711352,49.15171634
Northview Golf & Country Club Ltd,"Golf Course, Pro Shop, Restaurant",,6857,168 St,V3S8E7,6045740324,CTC,-122.7582261,49.12596694
Shoppers Drug Mart #2224,Retail Merchant - Drug Store,A,14867,108 Ave,V3R1W2,6045848393,GTC,-122.8093957,49.19944457
Elisabeth's Chalet Restaurant Ltd,Dining Lounge,,17785,No 10 (56 Ave) Hwy,V3S1E2,6045741474,CTC,-122.7298666,49.1042963
M J Drapery & Blinds Ltd,"Draperies & Blinds,Clothing",18,6828,128 St,V3W4C9,6045908191,NTC,-122.8675312,49.12696263
K & T Leadweld Co Ltd,Lead Burning Cont.,8,12318,84 Ave,V3W3G8,6045943022,NTC,-122.8815201,49.1556267
Mid Western Body Shop Ltd,"Auto Body Repair,Automobile Dealer",,17511,56A Ave,V3S1G2,6045747322,CTC,-122.7375985,49.10517507
Great Gyros & Pizza Ltd,"Mfg. - Food Products,Light Wrought Iron Welding",8,13140,88 Ave,V3W3K3,6045944970,NTC,-122.8588701,49.16247377
Denroche & Co,Financial Consultants,312,15252,32 Ave,V3S0R7,6045381723,SSTC,-122.7984696,49.06101028
Canadian Circuits Inc,Circuit Boards,10,13140,88 Ave,V3W3K3,6045998600,NTC,-122.8588701,49.16247377
Arnold & Sons Roofing Ltd,Roofing & Gutter Installation Contractor,112,13302,76 Ave,V3W2W1,6045990821,NTC,-122.8542721,49.14074119
Martlen Furniture Products,Mfg. - Millwork,207,14770,64 Ave,V3S1X7,6045724772,NTC,-122.8132993,49.11895438
Labour Ready Temporary Services Ltd,Temporary Service (Labour Personnel),,10344,East Whalley Ring Rd,V3T4H4,6049516337,SCC,-122.8417041,49.19061083
Brandt Tractor Ltd,Equipment Dealer,,9500,190 St,V4N3S2,6048828888,GTC,-122.6957415,49.17472702
Prospera Credit Union,Credit Union,,13747,104 Ave,V3T1W6,6045880111,SCC,-122.8415567,49.19179461
Midwest Equipment,Used Truck & Equipment Dealer,,12123,103A Ave,V3V3G7,6045809662,WTC,-122.8862765,49.19076677
Can Four Industrial Supplies Ltd,Lubricants,207,8322,130 St,V3W8J9,6045027222,NTC,-122.8620364,49.15374911
Dental Clinic Dr D Zygmunt Inc,Professional Practitioner-Dentist,,10385,150 St,V3R4B1,6045838885,GTC,-122.8066288,49.19084339
Great Urban Pet Escapes Inc,Dog Boarding & Training,,18030,32 Ave,V3S0L5,6045414138,SSTC,-122.7237522,49.05962642
Creative Insignia Ltd,"Whlse. Promotional Products T-Shirts, Caps, Mugs etc.",1,12312,82A Ave,V3W0T7,6045902800,NTC,-122.8813538,49.15303894
Lark Properties Ltd,Land Development,1500,13737,96 Ave,V3V0C6,6045762935,SCC,-122.842751,49.17720977
Patton & Cooke Ltd,Mfg. - High Voltage Equip.,100,7795,128 St,V3W4E6,6045915374,NTC,-122.8681591,49.14434394
Bank of Montreal (10155 King George Hwy),Banking,,10155,King George Hwy,V3T5H9,6046681180,SCC,-122.8457846,49.18693924
Buy Low Foods Ltd,Retail Merchant - Grocery Store,,14865,108 Ave,V3R1W2,6045842616,GTC,-122.809511,49.19944197
Bank of Montreal (176A St),Banking,,5711,176A St,V3S6S6,6045744152,CTC,-122.733934,49.10633819
Wendy's ,"Restaurant,Restaurant - No Alcohol",,9412,120 St,V3V4B9,6045817744,WTC,-122.8899128,49.1740025
Public Storage,Storage Space Rentals,,8654,120 St,V3W3N6,6045902111,NTC,-122.8900703,49.16063799
Elements Casino,Vending Machine,,17755,60 Ave,V3S1V3,6045769141,CTC,-122.7296331,49.11171557
Burnaby Lake Greenhouses Ltd,Nursery,,17250,80 Ave,V4N3G4,6045762088,CTC,-122.7454333,49.1479615
Public Storage,Mini Warehouse Storage,,12529,80 Ave,V3W3A4,6045943899,NTC,-122.8753529,49.14846859
Bayview Auto Towing 2000 Ltd,Towing - Storage,201,155,176 St,V3S9S4,6045382032,SSTC,-122.7358106,49.00499649
Kwantlen Park Manor,Apartment Rentals,,12975,106 Ave,V3T2C1,6046623102,SCC,-122.8629269,49.19548303
Nor Van Cable & Marine Supplies,Whlse. Wire Rope for Forest/Marine Industries,,19355,Enterprise Way,V3S6J8,6045337884,CTC,-122.6867859,49.10943123
Talvan Machine Shop Ltd,Machine Shop,308,13395,76 Ave,V3W6K2,6045941141,NTC,-122.8517127,49.14104962
Fuller Metric Parts Ltd,Wholesale - Fasteners,,9652,188 St,V4N3M2,6048829202,GTC,-122.7010538,49.17798416
True Blue Wire Products Inc,"Mfg. - Light Steel & Wire Products for Industrial, Commercial & Horticultural, Contractor - Installation of Wire Products",,3072,192 St,V3S9V2,6045411176,SSTC,-122.6912383,49.0584829
Northcoast Building Products Ltd,Whlse. Lumber,,14682,66 Ave,V3S1Z9,6045978884,NTC,-122.8153945,49.12260022
Enterprise Rent A Car Canada Limited,Automobile Rentals,B,13467,72 Ave,V3W2N7,6045962299,NTC,-122.849302,49.13377454
Shawcross + Moore Accounting Group Inc,Professional Practitioner-Accountant,204,8501,162 St,V4N1B2,6045980408,FTC,-122.7735478,49.15718298
Achilles Foot Health Centre,Podiatrist,102,10190,152A St,V3R1J7,6045895234,GTC,-122.7992727,49.18772159
Dendoff Springs Ltd (12045 Old Yale Rd),Mfg. - Industrial & Automotive Springs,,12045,Old Yale Rd,V3V3X4,6045803400,WTC,-122.8884244,49.20235254
Tim Platinum Jewellers,Retail Merchant - 0 to 2 Employees,,1675,128 St,V4A3V2,7782399925,SSTC,-122.8677963,49.03280124
The Body Shop,Retail Sales,114,1711,152 St,V4A4N3,6045418903,SSTC,-122.801669,49.0331143
Slip Tube Enterprises Ltd,"Mfg - Greenhouses,Manufacturing--Greenhouse & shelter",103,19353,22 Ave,V3Z3S6,6045802177,SSTC,-122.6889694,49.04329927
Optimal Chiropractic,Chiropractic Office,100,9128,152 St,V3R4E7,6049518959,FTC,-122.8010668,49.16881906
Tenold Transportation Ltd,Trucking & Cartage,,19470,94 Ave,V4N4E5,6048887822,GTC,-122.6831283,49.17348382
Westminster Lift Truck & Services Ltd,"Forklift Repair, Petroleum Products Distributor",,12925,116 Ave,V3R2S5,6045802611,WTC,-122.8639051,49.21364703
Copytek Duplication & Graphics Ltd,Computer Graphics,111,12414,82 Ave,V3W3E9,6045968181,NTC,-122.8785309,49.15186633
Halkin Tool Ltd (66 Ave),Mfg. - Industrial Equip.,,17819,66 Ave,V3S7X1,6045749799,CTC,-122.7288055,49.12251818
K N W Diesel Inc,Diesel Engine Repair,C1,19325,94 Ave,V4N4E6,6048883440,GTC,-122.6870856,49.17371169
C W L Auto Lease Inc,Auto Sales,15,3033,King George Blvd,V4P1B8,6045412886,SSTC,-122.8081268,49.0568465
Coast Wholesale Appliances LP,Warehouse - Appliances,,19495,56 Ave,V3S6K3,6045301155,CTC,-122.6827638,49.10461714
Lynum Progressive Industries,Mfg. Agent - Ind. Machinery,17,8456,129A St,V3W1A2,6045940100,NTC,-122.8637021,49.15622135
Universal TV Service Centre Ltd,Electronic Repair Service,102,19232,Enterprise Way,V3S6J9,6045761200,CTC,-122.6906012,49.10762933
Andy Lal's Auto Body & Painting Ltd,Auto Body Repair & Painting,,10743,124 St,V3V4T5,6045800100,WTC,-122.8789299,49.19796521
Save on Foods,"Retail Groceries, BC Wine Sales Only",,9014,152 St,V3R4E7,6049301133,FTC,-122.7992408,49.16697429
Coast Capital Savings Federal Credit Union,Credit Union,100,6350,120 St,V3X3K1,6042315453,NTC,-122.8900634,49.11815677
Whitemud Ironworks Limited,Steel Fabricator,,19469,92 Ave,V4N4G6,6048880242,GTC,-122.6831316,49.17030301
Panorama Coin Laundry,Coin Laundry,20,6828,128 St,V3W4C9,6045908194,NTC,-122.8675312,49.12696263
Dr Ruby Chan Inc,Professional Practitioner-Medical,211,1676,Martin Dr,V4A6E7,6045317707,SSTC,-122.8050671,49.0323296
McDonald's,Restaurant,,17960,No 10 (56 Ave) Hwy,V3S1C7,6045751690,CTC,-122.7252425,49.10399281
McDonald's,Restaurant,,15574,Fraser Hwy,V3S2V9,6045077900,FTC,-122.7913367,49.16195612
McDonald's,Restaurant,,10240,King George Blvd,V3T2W5,6045877015,SCC,-122.8450035,49.18861011
McDonald's,Restaurant,,12930,96 Ave,V3V6A8,6045873390,WTC,-122.8646301,49.17695672
McDonald's,Restaurant,1000,10355,152 St,V3R7C3,6049300934,GTC,-122.8042654,49.19192585
Purolator Inc,Retail Sales - Packaging,105,12020,Nordel Way,V3W1P6,6045861025,NTC,-122.8895749,49.16161786
Vancouver City Savings Credit Union (King George Hwy),Banking,,10293,King George Hwy,V3T2W6,6048777323,SCC,-122.8457272,49.18973484
Atlas Machines Ltd,Mfg. - Machine Shop,303,5327,192 St,V3S8E5,6045749577,CTC,-122.6915366,49.09937926
White & Peters,Whlse. Auto Refinishing Products,16,19335,No 10 (Langley Bypass) Hwy,V3S6K1,6045407200,CTC,-122.6871161,49.10661607
International House of Pancakes (120 St),Restaurant,,8170,120 St,V3W3N3,6045964994,NTC,-122.8900736,49.15202276
Dhaliwal Cedar Ltd (66 Ave),Mfg. - Lumber & Shingles,,14630,66 Ave,V3S1Z9,6045998270,NTC,-122.8169372,49.12258009
Ocean Park Veterinary Clinic,Professional Practitioner-Veterinarian,,1597,128 St,V4A3V1,6045368454,SSTC,-122.8677831,49.03111058
Novus Glass,Retail & Install. Glass & Mirrors,,2546,King George Blvd,V4P1H5,6045358852,SSTC,-122.796775,49.04859443
Dales Alignment & Brake Service Ltd,Auto Repair,108,19415,56 Ave,V3S6K2,6045309160,CTC,-122.6852154,49.10463067
Coast Capital Savings Federal Credit Union,Banking,102,9014,152 St,V3R4E7,6045177000,FTC,-122.7992408,49.16697429
My Dentist @ Boundary Park,Dental Office,121,6350,120 St,V3X3K1,6045978808,NTC,-122.8900634,49.11815677
K M Roberts & Associates Ltd,Warehouse,20,18812,96 Ave,V4N3R1,6048828488,GTC,-122.7008886,49.17684416
Fraser Heights Pharmacy Ltd,Retail - Pharmacy,102,16033,108 Ave,V4N1P2,6049309544,GTC,-122.7777544,49.1989669
B C Greenhouse Builders Ltd,Mfg. - Glass Enclosures,A5,19327,94 Ave,V4N4E6,6048828442,GTC,-122.6868901,49.17371296
Qualico Developments Vancouver Inc,General Cont.,201,6525,177B St,V3S5N4,6045823011,NTC,-122.7311208,49.1206088
Go Auto Surrey Chrysler Dodge Jeep Ram Ltd,Auto Repair,,6280,120 St,V3X1Y7,6045942277,NTC,-122.8900354,49.11715561
Gridcom Enterprises Ltd,Mining Resistors Repair,B4,19323,94 Ave,V4N4E6,6048881532,GTC,-122.6872937,49.1737234
Somerset Medical,"Medical Office, Professional Practitioner",4,13791,72 Ave,V3W9Y9,6045919404,NTC,-122.8390605,49.13426937
Mr Lube,Automotive Service,,7030,King George Blvd,V3W4Z9,6045993557,NTC,-122.8452506,49.13027203
White Spot Restaurant (10181 - 152 St),Restaurant,,10181,152 St,V3R4G6,6045852223,GTC,-122.8013123,49.18706468
#1 Sub Garden Ltd,Restaurant - Deli Take Out,,13482,72 Ave,V3W2N8,6045729311,NTC,-122.8488939,49.13339404
Crocker Equipment Co Ltd,Equipment Sales,1,19089,94 Ave,V4N3S4,6048883539,GTC,-122.6936235,49.17355569
Red Robin Gourmet Burgers ,"Restaurant,Food Primary-Class B Dining Room",,10237,152 St,V3R4G6,6049302415,GTC,-122.801301,49.1884148
Wesco Distribution Canada Inc,Electrical Distributor,201,12844,Anvil (78 Ave) Way,V3W8E7,6045991100,NTC,-122.8665731,49.14451223
Lordco Auto Parts Ltd,Auto Parts,D,2546,King George Hwy,V4P1H5,6045318877,SSTC,-122.796775,49.04859443
Budget Kitchen Cabinets Ltd,Manufacturer - Cabinets,5&6,13140,88 Ave,V3W3K3,6045915586,NTC,-122.8588701,49.16247377
Hydraulic Supply,"Whlse. Hydraulic Hose, Couplings",180,19358,96 Ave,V4N4C1,6048823122,GTC,-122.686029,49.17678045
Great West Equipment Ltd ,Warehouse - Parts & Equipment,,19067,94 Ave,V4N3S4,6048825051,GTC,-122.6942879,49.17355251
Napa Auto Parts ,Wholesale - Auto Parts,101,13177,76 Ave,V3W2V7,6045437433,NTC,-122.8580589,49.14119893
Surrey Cruise & Travel Ltd,Travel Agency,,7174,120 St,V3W3M8,6045919800,NTC,-122.890039,49.13349021
St Michael Honey Ltd,Mfg. - Honey,309,7889,132 St,V3W4N2,6045946833,NTC,-122.8570756,49.14629384
Intercontinental Truck Body BC Inc,Mfg. - Truck Body,,5285,192 St,V3S8E5,6045762971,CTC,-122.6914761,49.0988748
PPI-Canada,Mfg. - Conveyor Pulleys,,3388,190 St,V3S0L5,6045900404,SSTC,-122.6967024,49.06387449
Crush Clothing Ltd,Unisex clothing,60,16081,24 Ave,V3S9H7,6045318421,SSTC,-122.7766666,49.04634366
Mcallister Spring Ltd,"Mfg. - Automotive Leaf Springs, Bolts & Suspension Parts",,9678,186 St,V4N3N7,6048881872,GTC,-122.7073907,49.17833074
B & B Contracting (2012) Ltd,"Contractor - Sewer & Septic, Contractor - General",,3077,188 St,V3Z9V5,6045397200,SSTC,-122.7028758,49.05786182
Bank of Nova Scotia (King George Hwy),Banking,16,3189,King George Hwy,V4P1B8,6045410280,SSTC,-122.8116169,49.05963853
Surrey Auto Tec,Automotive Repair,,14770,64 Ave,V3S1X7,6045965181,NTC,-122.8132993,49.11895438
Coast Capital Savings Federal Credit Union,Credit Union,,12091,72 Ave,V3W2M1,6045177000,NTC,-122.8882511,49.13429
Hazelmere Industries Ltd,Mfg. - Wooden Products,2,5422,176 St,V3S4C3,6045747814,CTC,-122.734787,49.1009071
National Money Mart,"Cheque Cashing,Post Box Rental Agency",100,13711,72 Ave,V3W2P2,6045012360,NTC,-122.8425601,49.13375945
Merit Kitchens Ltd (86 Ave),Mfg. - Kitchen & Vanity Cabinets,,12185,86 Ave,V3W3H8,6045913321,NTC,-122.884926,49.16021902
Oakcreek Golf & Turf LP,"Whlse., Retail & Repair Golf Carts & Equip.",,18785,96 Ave,V4N3P5,6048828399,GTC,-122.7018303,49.17718871
Mezbaan Restaurant Limited,Food Primary-Class B Dining Lounge,,12790,96 Ave,V3V7H7,6045839987,WTC,-122.8684586,49.17702781
Unitow Services Ltd,Auto & Truck Towing,,13065,76 Ave,V3W2V7,6045921255,NTC,-122.8605156,49.14115125
D J Skinner & Associates Ltd,Warehouse - Security Door Products,103,5433,152 St,V3S5A5,6045994945,NTC,-122.8014712,49.1005229
Universal Supply Co Inc,Wholesale - Plumbing & Heating Supplies,,8371,129 St,V3W0A6,6045434300,NTC,-122.8658351,49.15480507
Denning Management Inc,General Cont.,215,12975,84 Ave,V3W1B3,6045724558,NTC,-122.8631065,49.15557181
Church's Chicken (120 St),Restaurant,112,8434,120 St,V3W7S2,6045727660,NTC,-122.8900795,49.15659098
Metro Systems Ltd,Electric Tools & Equipment Rentals,,11517,132A St,V3R7S2,6045802433,WTC,-122.8552425,49.2118893
Belco Electric Co Ltd,Contractor - Electrical,4,19299,94 Ave,V4N4E6,6045139664,GTC,-122.6879108,49.1736971
Lordco Parts Ltd (72 Ave),Whlse. Auto Parts,,13355,72 Ave,V3W2N5,6045432811,NTC,-122.8524734,49.13373514
First Memorial Funeral Services Fraser Heights Chapel,Funeral Parlour,,14835,Fraser Hwy,V3R3N6,6045892559,FTC,-122.8117078,49.17028506
Smith Plywoods Ltd,Lumber Yard,,5674,192 St,V3S2V7,6045744393,CTC,-122.6908169,49.10609669
Cooper Equipment Rentals Limited,Rentals - Equipment,,2283,King George Blvd,V4A5A4,6045387888,SSTC,-122.7912505,49.04327335
Dobney Foundry Ltd,Mfg. - Municipal Castings,,13101,78A Ave,V3W9B6,6045967407,NTC,-122.859526,49.14579724
Way To Grow Products Inc,Potting Nursery Stock,1,14418,44 Ave,V3S0L2,6045905889,SSTC,-122.8229981,49.0817857
Spectratec Services Group 2002 Inc,"Power Sweeping Contractor,Contractor - Power Sweeping ",200,9323,194 St,V4N4G1,6042946333,GTC,-122.6852201,49.17210122
Dr Titchener Chiropractic Corporation,Professional Practitioner-Chiropractor,101,15127,100 Ave,V3R0N9,6045894555,GTC,-122.8031241,49.18523907
Kobelt Manufacturing Co Ltd,Mfg. - Brakes & Steering Controls for Boats,,8238,129 St,V3W0A6,6045723935,NTC,-122.8652536,49.15258895
Semiahmoo House Society,Non Profit - Mentally Handicapped,,15306,24 Ave,V4A2J1,6045361242,SSTC,-122.7980257,49.04543687
H & R Block Cloverdale Satellite Franchise Office,Income Tax Returns Service,,5643,176 St,V3S4C4,6045743443,CTC,-122.7352002,49.10491571
Impressive Eyewear,Retail Sales - Opticals,,9965,152 St,V3R4G5,6045836155,GTC,-122.8012729,49.18379312
Onderwater Land Surveying Ltd,Professional Practitioner - Land Surveying Company,104,5830,176A St,V3S4H5,6045747311,CTC,-122.7334768,49.10838289
Expedia CruiseShipCenters Fleetwood,Travel Agency,102,15957,84 Ave,V4N0W7,6045729500,FTC,-122.7802443,49.15560921
D S M Excavating & Contracting Ltd,"Contractor - Excavating, Contractor - Excavating",1,17675,66 Ave,V3S7X1,6043724310,CTC,-122.7326442,49.12252372
Ocean Park News,Retail Smoke & Gift Shop,20,12899,16 Ave,V4A1N5,6045319611,SSTC,-122.8651721,49.03144286
Peace Arch R V Park,Convenience Store/RV Park & Campground,,14601,40 Ave,V3S0L2,6045947009,SSTC,-122.8161033,49.07486056
Kam Biotechnology Ltd,Mfg. - Industrial Biochemical Prod.,101,9710,187 St,V4N3N6,6048884336,GTC,-122.7046699,49.17909092
Little Caesars (152A St),Restaurant,,8888,152A St,V3R0V7,6049519100,FTC,-122.7994144,49.16418147
Dr Frank Marasa Inc,Professional Practitioner-Dentist,B,14863,108 Ave,V3R1W2,6045842535,GTC,-122.8096627,49.19943826
Double V Construction,Contractor - General Construction,406,13303,78 Ave,V3W5B9,6045903131,NTC,-122.8539139,49.14466728
Bank of Nova Scotia (120 St),Banking,,7378,120 St,V3W3M9,6045013325,NTC,-122.8900266,49.13615259
Bray Enterprises Ltd,General Cont.,302,2630,Croydon Dr,V3Z6T3,6045311549,SSTC,-122.7890743,49.04988337
Entre Nous Femmes Housing Society,Townhouse Rental,,2880,152 St,V4P1G6,6045385545,SSTC,-122.8008755,49.05407217
Surrey Inspection & Repair Centre Ltd,Truck Repairs & Inspections,A,10944,124 St,V3V4T9,6045807721,WTC,-122.8784237,49.20161774
Ranjit Sidhu & Co Inc,Accounting & Tax Serv.,208,7028,120 St,V3W3M8,6045961333,NTC,-122.8900449,49.13087217
Kobelt Development Inc,Computer Consulting/Repair/Design,231,18525,53 Ave,V3S7A4,6045747225,CTC,-122.7090156,49.09906465
Automation West Technologies,"Pneumatics/Hydraulics Sales, Robotics & Automation",100,10230,Grace Rd,V3V3V6,6045943461,NTC,-122.8953239,49.18854205
Punjab Driving Schools Inc,Driving School,,12798,61 Ave,V3X3M6,6045912220,NTC,-122.8681788,49.11303815
H W G Chartered Professional Accountants,Professional Practitioner-Accountant,200,17618,58 Ave,V3S1L3,6045769121,CTC,-122.7344944,49.10767157
Fits Right Industries Ltd,Manufacturer - Countertops,6,19272,94 Ave,V4N4E3,6048820080,GTC,-122.6884522,49.17343697
Sunnyside Manor Seniors Residence Society,Apartments,,15340,17 Ave,V4A1T9,6045317470,SSTC,-122.7973813,49.03280525
Mark's Work Wearhouse Ltd,Retail Sales - Clothing,,7908,120 St,V3W3N2,6045901566,NTC,-122.8900682,49.1469285
Fastsigns,"Mfg. & Design - Signs,Sign Painter/Manufacturing/Installations",101,6844,King George Blvd,V3W4Z9,6045996677,NTC,-122.8445507,49.12688169
R West & Associates Inc,Trustee In Bankruptcy,255,15117,101 Ave,V3R8P7,6045917634,GTC,-122.8032962,49.18628623
World Wide Custom Brokers Ltd,Customs Broker,221,17637,1 Ave,V3S9S1,6045384763,SSTC,-122.7336964,49.00418376
Commercial Truck Equipment Corp,Truck Equipment Sales And Service,,9475,192 St,V4N3R7,6048880513,GTC,-122.6908366,49.17465101
Reflections Truck Body Repair Ltd,Truck Body Shop,,19045,94 Ave,V4N3S4,6048886912,GTC,-122.6949524,49.17354932
Somerset Pharmacy Services,Retail Sales - Pharmacy,7,13791,72 Ave,V3W9Y9,6045905587,NTC,-122.8390605,49.13426937
Tan Trang Fashions,Retail Clothing,1119,7318,137 St,V3W1A3,6045012209,NTC,-122.8425744,49.13559796
Dr Barend Zack Inc,Professional Practitioner-Medical/Opthalmologist,605,9639,137A St,V3T1V8,6045856414,SCC,-122.8423184,49.17799896
Canadian Dewatering LP,Wholesale - Pumps & Generators,,19577,94 Ave,V4N4E6,6048880042,GTC,-122.6803815,49.17371205
The U P S Store #092,"Retail Sales - Mail Boxes, Supplies",800,15355,24 Ave,V4A2H9,6045350052,SSTC,-122.7975044,49.04583671
Rona Revy Inc,Warehouse,,19550,92 Ave,V4N4G7,6048826200,GTC,-122.6807556,49.16999891
Apex Communications Inc (13734 - 104 Ave),"Retail Cellular Phones, Alarm Installation Cont.,Contractor - Alarm Installation",,13734,104 Ave,V3T1W5,6045833300,SCC,-122.8416,49.19142656
C B I Surrey Limited Partnership,Consultant - Health Care,202,7350,King George Hwy,V3W5A5,6045726262,NTC,-122.8452357,49.13620325
Nijjar Greenhouses Ltd,Nursery,,4233,King George Hwy,V3S0L2,6045916238,SSTC,-122.8217704,49.07883302
North Delta Paint & Decorating ,"Retail Sales - Paint, Wallpaper, Etc.",139,6350,120 St,V3X3K1,6045909590,NTC,-122.8900634,49.11815677
VitalAire Canada Inc,Therapy For Sleep Disorders,212,5460,152 St,V3S5J9,6045769400,NTC,-122.7997339,49.10214832
Citiwest Consulting Ltd,Professional Practitioner-Engineer/Civil Engineering,101,9030,King George Hwy,V3V7Y3,6045912213,WTC,-122.8453364,49.1667895
First Canadian Messenger Service Inc,Trucking & Cartage,,13350,Comber Way,V3W5V9,6045903301,NTC,-122.8531944,49.13591903
South Seas Enterprises (2) Ltd,Wholesale - Frozen Meats,201,7750,128 St,V3W0R6,6045967731,NTC,-122.8676534,49.14358109
Bert's Automotive,Auto Repair,,13391,King George Blvd,V3T2T5,6045849151,SCC,-122.8509011,49.20293482
Peninsula Runners Company Inc,Retail Clothing & Shoes,100,1688,152 St,V4A4N2,6045317879,SSTC,-122.8008931,49.03243524
Bricon Kitchens Inc,Mfg. - Kitchen Cabinets,B119,13761,116 Ave,V3R0T2,6049301605,WTC,-122.840924,49.2137351
Mustang Contracting,Contractor - Electrical,202,13308,76 Ave,V3W2W1,7783172256,NTC,-122.853768,49.14074541
Sussex Insurance Agency Newton Inc,Insurance Agency,2,7550,King George Hwy,V3W2T2,6045435159,NTC,-122.845258,49.13966312
Fedewich & Witt,Professional Practitioner-Notary,,5661,176A St,V3S4G8,6045769468,CTC,-122.7339023,49.10520204
O C Open Connection Ltd,Retail Sales - Cellular Phones,108,7380,King George Blvd,V3W5A5,6045439366,NTC,-122.8452107,49.13673593
G Hjukstrom Ltd,Whlse. Automotive Industrial Products,,19114,95A Ave,V4N4P2,6048828211,GTC,-122.6930804,49.17592517
Trail Appliances Ltd,Retail Sales - Appliances,,6750,King George Hwy,V3W4Z5,6045903377,NTC,-122.8451999,49.12534623
Akasaka Japanese Restaurant Surrey Ltd,Dining Lounge,,15110,101 Ave,V3R7V4,6045881244,GTC,-122.8034003,49.18597032
Custom Protect Ear Inc,Mfg. - Custom Hearing Protection,681,7789,134 St,V3W9E9,6045991311,NTC,-122.8514667,49.14403212
Dr P S Bhurji Inc,Professional Practitioner-Medical,,8241,120A St,V3W3P5,6045720055,NTC,-122.8887722,49.15294511
Johnston Meier Insurance Agencies Ltd,"Insurance Agency,Retail Sales - Cellular Phones",140,10362,King George Hwy,V3T2W5,6045844456,SCC,-122.8450561,49.19096128
Ramada Hotel,Hotel,,19225,No 10 (Langley Bypass) Hwy,V3S8V9,6045768388,CTC,-122.6902128,49.10489475
A & K Diesel Repair Ltd,Truck Repairs,,17841,64 Ave,V3S1Z3,6045744266,CTC,-122.7282077,49.11892776
Custom Building Products of Canada Ltd,Mfg. - Setting Material & Grout,,12638,82 Ave,V3W3G1,6045911021,NTC,-122.8723814,49.15174489
CBI Health Centre-Guildford,Professional Practitioner-Medical/Physiotherapy,200,15387,104 Ave,V3R1N5,6049517345,GTC,-122.7957508,49.19171319
Learning Disabilities Association of BC Fraser South Chapter,Services to Learning Disabled Persons,101,14225,57 Ave,V3X0H6,6045915156,NTC,-122.8283419,49.10647525
Yess Products Ltd,Mfg. - Bicycle Frames,13,13478,78 Ave,V3W8J6,6045919377,NTC,-122.849141,49.14433962
Dr Kurt T Tsuyuki,Medical Office,603,9639,137A St,V3T0M1,6049510076,SCC,-122.8423184,49.17799896
Morgan Creek Golf Course,"Golf Course, Restaurant, Pro Shop,Golf Shop",,3500,Morgan Creek Way,V3S0J7,6045314653,SSTC,-122.7819576,49.06494761
Onside Restorations Ltd,"Restoration,Contractor - General/Construction/Plumbing",,9780,188 St,V4N3M2,6042931596,GTC,-122.700985,49.18021982
Kohaly Printing & Bindery Ltd,Printing & Bindery,210,12837,76 Ave,V3W2V3,6045942324,NTC,-122.8666709,49.141185
Ace Truck & Equipment Repairs Ltd,"Truck & Equipment Repair, Truck Sales",,19155,96 Ave,V4N3P2,6048881133,GTC,-122.6917397,49.17716918
Rexall #7169,Retail Sales - Drug Store,,12851,16 Ave,V4A1N5,6045367611,SSTC,-122.8659375,49.03150404
Northwest sheet,Mfg. - Steel Fabrication for Cranes and Hoists,,19337,Enterprise Way,V3S6J8,6045300038,GTC,-122.6872009,49.10922338
F12 Net Inc,"IT solution provider including assembly, services, warehouse and wholesale of it hardware & equipmen",200,17577,No 10 (56 Ave) Hwy,V3S1C4,6045769522,CTC,-122.735589,49.10432833
Cloverdale Family Medical Centre,Professional Practitioner-Medica,,5633,177B St,V3S4H9,6045762828,CTC,-122.7305299,49.10471332
Stampede Tack & Western Wear Ltd,Retail Tack & Western Wear,,17982,56 Ave,V3S1C7,6045747427,CTC,-122.7242117,49.10399186
Coast Capital Savings Federal Credit Union,Financial Services,,16011,24 Ave,V3R9H7,6045177000,SSTC,-122.7784899,49.04583151
DP World Fraser Surrey Limited Partnership,Deep Sea Port Terminal Operator,,11060,Elevator Rd,V3V2R7,6045812233,WTC,-122.9162696,49.17779541
Jim Pattison Chrysler Jeep Dodge North Surrey,Automotive Sales,,15377,Guildford Dr,V3R0H9,6045812231,GTC,-122.7963392,49.19774735
Soper's Supply Ltd,Whlse. Electric Motors,9,8285,132 St,V3W4N6,6045901667,NTC,-122.8571375,49.15334354
Victory Memorial Park Funeral Centre,Funeral Home,,14831,28 Ave,V4P1P3,6045366522,SSTC,-122.810324,49.05314317
P G Performance Sales & Service,Auto & Part Sales/Repair Serv.,,10845,148 St,V3R3Y2,6045858558,GTC,-122.8127608,49.19945486
Vista Green Apartments,Apartment Rentals,,7575,140 St,V3W5J9,6045836844,NTC,-122.8347822,49.14059242
Black Belt Academy,Martial Arts Instruction,,7135,138 St,V3W7T9,6045905425,NTC,-122.8391595,49.13246636
Johnsen Archer LLP,Professional Practitioner-Chartered Accountants,300,7485,130 St,V3W1H8,6045012822,NTC,-122.8621049,49.13925128
Stator Sales & Service Ltd,Whlse. & Serv. Electric Motors & Pumps,B2,19323,94 Ave,V4N4E6,6048828762,GTC,-122.6872937,49.1737234
Marr Weld on Hinges Ltd,Whlse. Hinge Hardware,203,14770,64 Ave,V3S1X7,6045940748,NTC,-122.8132993,49.11895438
West Coast Floral Growers & Distributors Ltd,Nursery,,1420,172 St,V3S9M6,6045417447,SSTC,-122.7421519,49.02738135
Child Evangelism Fellowship Of B C,Educational,204,18515,53 Ave,V4N4A9,6045818242,CTC,-122.7092668,49.09915015
Riverside Insurance Agencies (1984) Ltd,Insurance Brokerage,B,14867,108 Ave,V3R1W2,6045814466,GTC,-122.8093957,49.19944457
Rare Manufacturing Inc,Mfg. - Roofing Tiles,A,19154,95A Ave,V4N4P2,6048822888,GTC,-122.6917724,49.17592932
Maguire Inc Dr Hugh,Professional Practitioner-Dentist/Endodontics,239,1959,152 St,V4A9E3,6045313631,SSTC,-122.8014669,49.03727504
PT Health - Surrey Central Physiotherapy,Physiotherapy Clinic,,13817,Central Ave,V3T5B5,6045836088,SCC,-122.8395682,49.18981771
Subway,Restaurant,2783,10153,King George Hwy,V3T2W1,6049308689,SCC,-122.8474019,49.18559446
Global Dec K Ing Systems,Contractor - Vinyl  Decks & Railing,,5250,185A St,V3S7A4,7785713000,CTC,-122.7081568,49.09756051
Contemporary Aluminum Railings Ltd,"Manufacturer - Aluminum Railings,Contractor - Railing Installation and Coverings",,18521,97 Ave,V4N3N9,6044550703,GTC,-122.7091668,49.17906841
Recovery Law Corporation,Legal Serv.,9,15243,91 Ave,V3R9K2,6045840007,FTC,-122.7998524,49.16845099
Surrey Bike Zone,Retail-Bicycles,,2393,King George Blvd,V4A5A4,6045830969,SSTC,-122.7944866,49.04507845
Southwest Hearing Clinic Inc,Audiology Clinic,130,13711,72 Ave,V3W2P2,6045919228,NTC,-122.8425601,49.13375945
Magnum Marketing Ltd,Whlse. Vehicle Serv Equipment,104,5630,Landmark Way,V3S7H1,6045328082,CTC,-122.6845368,49.10520376
R M C Ready Mix Ltd,Head Office,,19275,54 Ave,V3S8E5,6045741164,CTC,-122.6890351,49.10137225
First West Credit Union,Credit Union,100,15355,Fraser Hwy,V3R3P3,6045014280,FTC,-122.7972292,49.16472745
Dura Spirol Pipe Inc,Manufacturer - Spiral Pipe Machines,10,19158,94 Ave,V4N4X8,6048883389,GTC,-122.6917855,49.17319754
A & W Restaurant (72 Ave),Restaurant,,12133,72 Ave,V3W2M1,6045962224,NTC,-122.8867063,49.13426872
Ocean Park Massage Therapy Clinic,Massage Therapist,210,12761,16 Ave,V4A1N2,6045360700,SSTC,-122.8684079,49.03146096
Labour Unlimited,Employment Agencies / Temp. Serv.,,10447,King George Hwy,V3T2W7,6049510007,SCC,-122.8456336,49.19250706
Pro Quality Doors & Mouldigs Ltd,Manufacturer - Doors,107,13140,80 Ave,V3W3B2,6045903431,NTC,-122.8582451,49.14797572
Litespan Electric,Contractor - Electrical,104,19232,Enterprise Way,V3S6J9,6045740346,CTC,-122.6906012,49.10762933
Fountain Tire White Rock Limited,Tire & Auto Service,C,2546,King George Hwy,V4P1H5,6045353973,SSTC,-122.796775,49.04859443
Vision West Aluminum Ltd,"Glazing Contractor, Contractor - Glass Installation",301,19055,54 Ave,V3S4R1,6045742500,CTC,-122.6951368,49.10092916
Corwest International Trading Inc,Import & Export,,19355,Enterprise Way,V3S6J8,6045347700,CTC,-122.6867859,49.10943123
Panther Paintball Adventures,Paintball Adventure,,19022,16 Ave,V3S5J9,6045330890,SSTC,-122.6961777,49.03093627
Duffin Martin Tax & Accounting,Tax & Accounting Services,,15685,108 Ave,V4N1J9,6045833944,GTC,-122.787535,49.19898768
Building Supply Dealers Assn of BC,Dist. of Printed Materials,2,19299,94 Ave,V4N4E6,6045132205,GTC,-122.6879108,49.1736971
Art's Nursery,Nursery,,8940,192 St,V4N3W8,6048821201,GTC,-122.6901705,49.16504255
Emco Ltd,Wholesale - Plumbing & Heating,,8308,129 St,V3W0A6,6045948311,NTC,-122.865217,49.15363463
Chu Lin Farm,Whlse. & Retail Farm Produce,,17535,40 Ave,V3S0L5,6045740268,SSTC,-122.7372131,49.07513999
McDonald's,Restaurant,,11011,Scott Rd,V3V8B9,6045804040,WTC,-122.8791657,49.20265513
Delrios Restaurants Inc,Restaurant & Lounge,,1669,128 St,V4A3v2,6045362544,SSTC,-122.867801,49.03263244
Mark's Work Wearhouse #250,Clothing,,2425,160 St,V3S0C8,6045365221,SSTC,-122.7795258,49.04638572
Andrew Sheret Ltd,"Whlse. Plumbing, Heating, Air Conditioning & Industrial Supplies",,19558,56 Ave,V3S6K4,6045347421,CTC,-122.6814035,49.10422572
Paul  Peel & Associates,Psychologist,2002,7445,132 St,V3W1J8,6045945225,NTC,-122.8569802,49.13788696
S A V Plastics Ltd,Plastics Fabrication,7,12125,86 Ave,V3W3H8,6045999334,NTC,-122.8867099,49.15976803
Wine Kitz,"Retail-Wine Kits & Supplies, Wine Making",101,2428,King George Hwy,V4P1H5,6045386778,SSTC,-122.7937753,49.04623447
Spectral Finishing Inc,"Mfg. - Aluminum Anodizing,Wholesale",103,8310,130 St,V3W8J9,6045727382,NTC,-122.8620126,49.15351025
Fine Edge Salon Essentials,"Whlse. Beauty Supplies,Charitable Society/Organization,Warehouse",302,8352,130 St,V3W8J9,6045017756,NTC,-122.8620223,49.15417323
J & J Sales Ltd,Wholesale - R V Parts,6,19510,55 Ave,V3S8P7,6045346336,CTC,-122.6824606,49.10220438
Remington Park Motors,Auto Repair,10,19080,96 Ave,V4N3R3,6048821986,GTC,-122.6944152,49.1768378
Interwest Restaurants,Restaurant Administration,401,7337,137 St,V3W1A4,6045016692,NTC,-122.8430688,49.13602195
Coastal Lock & Key,Locksmith,106,7808,132 St,V3W4N1,6045995397,NTC,-122.8565127,49.14480224
Epoch Developments Ltd,Land Development & Investments,6,10320,East Whalley Ring Rd,V3T4H4,6042505397,SCC,-122.84169,49.19005253
Delitalia Fine Foods Inc,Food Primary-Class B Dining Room,A,1629,128 St,V4A3V2,6045359588,SSTC,-122.8677382,49.03178116
King George Motel Ltd,Motel,,6542,King George Blvd,V3W4Z3,6045916001,NTC,-122.8451071,49.12158708
Newton Rental Centre,Party Serv. & Rentals,3,8285,132 St,V3W4N6,6045961771,NTC,-122.8571375,49.15334354
Fountain Tire (104 Ave),Auto Repair,,13689,104 Ave,V3T1W3,6045883077,SCC,-122.8423243,49.19171318
Corvette Specialties Auto Group Inc,Auto Body Repair Service,,11180,Scott Rd,V3V8B8,6045808388,WTC,-122.8738939,49.20529917
Royal Autobody & Sales Ltd,Auto Body/Painting,4,7680,134 St,V3W7T8,6045994515,NTC,-122.8509599,49.14223749
Paperchase Graphics Bar Code & Label Systems Inc,Bar Code & Label System Supplier,100,8459,160 St,V4N0V6,6049519400,FTC,-122.7790908,49.15657231
I-XL Building Products Inc,Wholesale - Masonry Products,105,19033,54 Ave,V3S4R1,6045746680,CTC,-122.6960653,49.10090249
Discovery Products Ltd,Whlse. Playground Fixtures,,19154,95A Ave,V4N4P2,6048883712,GTC,-122.6917724,49.17592932
Rona Inc (Fraser Hwy),"Building Materials & Garden Center,Vending Machine",,16659,Fraser Hwy,V4N0E7,6045762955,FTC,-122.7604521,49.15033272
Pharmasave No 206,Retail Pharmacy,119,15280,101 Ave,V3R8X7,6045843331,GTC,-122.7986031,49.18597274
Pacbrake Mfg,Mfg. - Engine Retarders & Parts,,19594,96 Ave,V4N4C3,6048820183,GTC,-122.6797992,49.17673855
Midway Mazda,Auto Sales/Serv. & Leasing,6,3050,King George Hwy,V4P1A2,6045385388,SSTC,-122.8081022,49.05807362
Hudson Mitchell & Sons Lumber Inc,Lumber Remanufacturing,,12975,76 Ave,V3W2V3,6045963333,NTC,-122.8636826,49.14115614
Ene Inc Dr Dragomir,Professional Practitioner-Dentist,114,1656,Martin Dr,V4A6E7,6045317101,SSTC,-122.8050313,49.03206461
A J H Macdonald Limited,Mfg Agent - Hardware,,2368,Christopherson Rd,V4A3L4,6045419922,SSTC,-122.8824797,49.04523279
5 Star Catering Ltd ,"Caterer, Liquor Primary - Class A Pub, Restaurant - Lounge, Food primary dining lounge",,5640,188 St,V3S4N5,6045740411,CTC,-122.7013147,49.10544931
Field & Marten Associates Inc,Project Management,201A,15375,102A Ave,V3R7K1,6045132233,GTC,-122.7960506,49.18911666
Dr Lorne E Albrecht Inc,Professional Practitioner-Medical,603,13737,96 Ave,V3V0C6,6045851110,SCC,-122.842751,49.17720977
"DSI Canada Civil, Ltd",Whlse. Material Supply,103,19433,96 Ave,V4N4C4,6048888818,GTC,-122.6840319,49.17776228
Westran Intermodal Ltd,Warehouse & Transload Facilities,,10650,Timberland Rd,V3V7Z1,6049305811,WTC,-122.8972317,49.19619224
Peace Arch Imports Ltd,"Importer,Forced entry prevention",6,13415,76 Ave,V3W2W2,6045948775,NTC,-122.8508187,49.14103281
Golos Dental Centre Inc,Professional Practioner - Dentist,104,10351,150 St,V3R4B1,6049518001,GTC,-122.8067123,49.19062342
Sheraton Vancouver Guildford Hotel,Hotel,,15269,104 Ave,V3R1N5,6045829288,GTC,-122.7988466,49.19170882
Sandcastle Recreation Centre Ltd,"Squash, Bowling Alley (5 &10 Pin), Restaurant",,1938,152 St,V4A4N6,6045352695,SSTC,-122.8009197,49.03724945
Allied Blower & Sheet Metal Ltd,"Mfg. - Pneumatic Conveying & Dust Collection Systems; Steel Fabrication, Contractor - Steel Fabrication",,12224,103A Ave,V3V3G9,6049307000,WTC,-122.8833975,49.19046747
Roofmart Pacific Ltd,Whlse. Roofing Material,,8321,132 St,V3W4N6,6045915171,NTC,-122.8572083,49.15404041
Breakaway Bays Mobile Home Park,Mobile Home Sales,,1840,160 St,V4A4X4,6045368255,SSTC,-122.7789633,49.03517233
Monte Carlo Hair Piece Design Ltd,Retail Hairpieces & Wigs,108,12827,76 Ave,V3W2V3,6045996996,NTC,-122.867155,49.14117557
Grandview Inn,Hotel/Motel,,2160,King George Blvd,V4A5A2,6045361110,SSTC,-122.7878014,49.0414101
Surtek Industries Inc,Mfg. - Communication & Electronic Equip.,4,13018,84 Ave,V3W1L2,6045902235,NTC,-122.8618194,49.1551919
Hi Lite Truck Accessories Ltd,"Mfg. - Light Truck Accessories,Miscellaneous",,5620,Landmark Way,V3S7H1,6045343838,CTC,-122.6844925,49.10480715
Doors Galore,Retail Doors,,8160,120 St,V3W3N3,6045438005,NTC,-122.8901009,49.15167898
Stern Shapray Criminal Lawyers,Law Office,1012,7445,132 St,V3W1J8,6045905600,NTC,-122.8569802,49.13788696
Apna Professional Driving School Ltd,Driving School,109,12815,85 Ave,V3W0K8,6045906330,NTC,-122.8674407,49.15759827
Dr Robert G Froh Inc,Professional Practitioner-Medical,1207,13737,96 Ave,V3V0C6,6045858469,SCC,-122.842751,49.17720977
Dr S Maloon Inc,Professional Practitioner-Medical,1207,13737,96 Ave,V3V0C6,6045858469,SCC,-122.842751,49.17720977
Dr Charles D Telfer Inc,Medical Office,1207,13737,96 Ave,V3V0C6,6045858469,SCC,-122.842751,49.17720977
R G R Produce Sales Inc,Whlse. Produce,,16225,48 Ave,V3S0L2,6045740255,CTC,-122.7739068,49.08995921
Vancar Light Truck Sales Ltd,Used Auto Sales,,12882,King George Blvd,V3T2S9,6049702929,SCC,-122.8648122,49.20654455
McDonald's,Restaurant,,14476,104 Ave,V3R1L9,6045871014,GTC,-122.8208021,49.19131349
Ankenman Associates Architects Inc,Professional Practitioner-Architect,200,12321,Beecher St,V4A3A7,6045361600,SSTC,-122.8804726,49.05324064
Eurocan Industries Inc,Property Mgmt.,101,10715,135A St,V3T2X2,6045858500,SCC,-122.8472279,49.1973133
DCC - Guildford Orthodontics,Professional Practitioner-Medical,200,10203,152A St,V3R4H6,6045892212,GTC,-122.7997179,49.18790048
FortisBC Energy Inc,Public Utility Company,,16705,Fraser Hwy,V4N0E8,6045767000,FTC,-122.7580097,49.14956759
Ricky's All Day Grill #2,Dining Lounge,,8958,152 St,V3R4E4,6045813212,FTC,-122.8011492,49.1654512
Tang Acupuncture Services,Acupuncture,102,10334,152A St,V3R7P8,6045816786,GTC,-122.7992432,49.19018383
Excel Office & Restaurant Cleaners Ltd,Janitorial Service,,6643,142A St,V3W0P5,6045720070,NTC,-122.8274727,49.12341305
Thyssen Canada Copper & Brass Sales Division,Wholesale - Metal Service Centre,,19044,95A Ave,V4N4P2,6048823493,GTC,-122.6949076,49.17593002
G A M Jamshidian Shoes & Repair Ltd,Retail Sales - Purses & Shoe Accessories,113,10212,152 St,V3R6N7,6047825710,GTC,-122.800629,49.18820963
Alder Auto Parts Ltd (96 Ave),Auto Parts,3,19414,96 Ave,V4N4C2,6048883722,GTC,-122.6847715,49.17680539
Anipet Animal Supplies Inc,Wholesale - Pet Supplies,,19038,24 Ave,V3S3S9,6045363367,SSTC,-122.6959349,49.04547577
A & W Restaurant (7330 King George Hwy),Restaurant,,7330,King George Hwy,V3W5A5,6045902226,NTC,-122.8452337,49.13603845
Quantum Lifecycle Partners LP,Computer Repair Service,100,10281,Grace Rd,V3V3V7,6045844455,WTC,-122.8948711,49.18973762
Phoenix Enterprises Ltd,Contractor - General,200,19429,54 Ave,V3S7X2,6045940224,CTC,-122.6850761,49.10038638
Dr M C Green Inc,Professional Practitioner-Medical,4,9025,160 St,V4N2X7,6045845242,FTC,-122.7813277,49.16691215
G C T Auto Tech,Auto Repair,1,19295,Enterprise Way,V3S6J8,6045302774,CTC,-122.6885984,49.10795887
Alpi's Brakes & Alignment,Automotive Repair,,11052,124 St,V3V4V1,6045812067,WTC,-122.8783861,49.2037398
Ann Louise Jewellers Ltd,Retail Jewelry,,2546,Guildford Town Centre,V3R7C1,6045894111,GTC,-122.8040027,49.18941005
Diamond Delivery Services,Trucking & Cartage,,13350,Comber Way,V3W5V9,6045916901,NTC,-122.8531944,49.13591903
Surrey Central Inn,Motel,,13939,104 Ave,V3T1X1,6049304850,SCC,-122.8357593,49.19167679
Pacific Boiler Ltd,Boiler Serv Cont.,203,17665,66A Ave,V3S2A7,6045399551,CTC,-122.7332104,49.1235247
Sunnyside Esso & Car Wash,"Gas Serv Stn , Car Wash, Convenience Store",,2360,King George Hwy,V4A5A5,6045311088,SSTC,-122.7924675,49.04510073
Surrey Honda,"New & Used Autos & Auto Repairs,Vending Machine",,15291,Fraser Hwy,V3R3P3,6045837421,FTC,-122.798497,49.16523332
Stardust Flowers,Retail Sales - Flowers,25,15875,84 Ave,V4N0W7,6045856612,FTC,-122.7819854,49.15568168
Icon Salon Systems,Whlse. Beauty Supplies,610,13361,78 Ave,V3W5B9,6045912339,NTC,-122.8525688,49.14465747
Sohi Bros Enterprises Ltd,Trucking Firm,,12345,84 Ave,V3W3G8,6045805007,NTC,-122.8802978,49.15590655
Kung Pao Wok,Take Out Restaurant,1411,10355,152 St,V3R7B7,6045897938,GTC,-122.8042654,49.19192585
Midas Auto Service Surrey White Rock,Auto Repair,,2524,King George Blvd,V4P1H5,7787360181,SSTC,-122.7960763,49.04805728
D L C Distributors Inc,Warehouse - Electronic Parts,101,10425,173 St,V4N5H3,6045805222,GTC,-122.7432665,49.19215202
Lups Contractors Ltd,"Contractor - Underground Utility Work, Inter-Municipal Business License Metro",,5462,192 St,V3S8E5,6045766838,CTC,-122.6908948,49.10186292
Fabco Plastics Western BC Ltd,Whlse. - Plastic Fluid Handling Equip.,,9511,194A St,V4N4G4,6048821564,GTC,-122.6846171,49.17538211
Gap (Guildford Town Centre),Retail Clothing,,2232,Guildford Town Centre,V3R7B9,6045822522,GTC,-122.8040027,49.18941005
Grouse Creek Motel,"Motel, Retail Gifts",,9414,King George Hwy,V3V5W3,6045894576,WTC,-122.8455164,49.17375466
Cater Alley,Restaurant,3,10727,135A St,V3T4E3,6045813742,SCC,-122.8472596,49.19753024
Ace Courier Services Ltd,Courier Service,A6,9305,194 St,V4N4G1,6048822025,GTC,-122.6854178,49.17133143
J V R Food Packaging Solutions Ltd,Manufacturer - Food Broker,,9470,195 St,V4N4G2,6048885871,GTC,-122.682044,49.17478511
Fruiticana #7,"Retail Sales - Groceries, Etc.",,12047,80 Ave,V3W3N2,6045902080,NTC,-122.8887306,49.14874447
Northwind Heating Ltd,Contractor - Plumbing/Heating/HVAC,105,14772,64 Ave,V3S1X7,6045727944,NTC,-122.8126375,49.11895875
Sangam Auto Body Ltd,Auto Body Repair,1,8336,129 St,V3W0A6,6045721213,NTC,-122.8652924,49.15426026
Colors In Motion Refinishing,Auto Body/Painting,105,5630,Landmark Way,V3S7H1,6045347988,CTC,-122.6845368,49.10520376
Auto Parts Plus Surrey,Auto Parts,102,7728,128 St,V3W1L3,6045966244,NTC,-122.8676693,49.1427663
Pentco Industries Inc,Mfg. - Wooden Kitchen Cabinets & Bathroom Vanities,,9274,194 St,V4N4E9,6048885080,GTC,-122.6847108,49.1714608
Pizza Hut,Restaurant - No Alcohol,,13786,104 Ave,V3T1W5,6045821740,SCC,-122.8403703,49.19140493
A R Thomson Ltd,Mfg. - Gaskets & Distributors,,3420,189 St,V3Z1A7,6045076050,SSTC,-122.7002279,49.06390443
Reitmans #220,Retail Sales - Clothing,1045,10355,152 St,V3R7C1,6045810315,GTC,-122.8042654,49.19192585
Homewood Health Inc,Psychological Services,218/,7164,120 St,V3W3M8,6046891717,NTC,-122.8898254,49.13337918
Super Express Vacuum Centre Ltd,Retail - Vacuums & Sewing Machines,,13478,72 Ave,V3W2N8,6045911868,NTC,-122.8489977,49.13339112
Sparkleworld Enterprises Ltd,Mobile Cleaning Company,6,12484,82 Ave,V3W3E9,6045918223,NTC,-122.8766379,49.15182787
OpenRoad Richmond Auto Body Express - White Rock,Auto Body Repair & Painting,,2500,King George Blvd,V4P1H5,6045362212,SSTC,-122.795729,49.04777681
Coast Capital Savings Federal Credit Union,Financial Institution,,17730,No 10 (56 Ave) Hwy,V3S4P6,6045177000,CTC,-122.7314081,49.10399577
Reality Transportation Services Inc,Van & Bus Serv.,102,8484,162 St,V4N1B4,6045729080,FTC,-122.7730625,49.15708695
Essential Auto Collision Ltd (132 St),"Used Auto Sales, Auto Painting & Body Work",,7795,132 St,V3W4M8,6045962111,NTC,-122.8570074,49.14455395
A & W Restaurant (Fraser Hwy),Fast Food Restaurant,,15988,Fraser Hwy,V4N0X8,6045979599,FTC,-122.7795386,49.15724844
C M S Metals Inc,Salvage Yard,,12481,Old Yale Rd,V3V3X9,6045801812,WTC,-122.8765212,49.19734988
Alder Auto Parts Ltd (66A Ave),Auto Parts,111,17665,66A Ave,V3S2A7,6045740488,CTC,-122.7332104,49.1235247
Fit For Women Gym Ltd,Fitness Centre,,10039,Whalley Blvd,V3T4G1,6045815896,SCC,-122.8434762,49.185143
Kaminsky & Company Law Corporation,Professional Practitioner-Lawyer,205,15240,No 10 (56 Ave) Hwy,V3S5K7,6045917877,NTC,-122.79931,49.10418421
Delta Glass And Mirror Co 1979 Ltd The,Manufacturer - Glass,101,13060,80 Ave,V3W3B2,6045916422,NTC,-122.8602604,49.14800455
Signode Canada A Division of Signode Packaging Group Canada ,Whlse. Products,102,19099,25 Ave,V3S3V2,6045138331,SSTC,-122.694427,49.04765655
Craftsman Collision  Newton,Body Shop,40,8268,128 St,V3W4G2,6045964880,NTC,-122.8677669,49.15312705
Ducks Unlimited Canada,Non Profit Conservation,511,13370,78 Ave,V3W0H6,6045920987,NTC,-122.8523963,49.14438172
Ken's Auto Service,Auto Repair,21,8236,128 St,V3W4G2,6045969626,NTC,-122.8676906,49.15216697
Port Kells Nurseries,Nursery,,18730,88 Ave,V4N3G5,6048821344,GTC,-122.7035647,49.16254018
Pacific Rim Industrial Insulation Ltd,"Industrial Insulation Service, Contractor - Insulation",2,19510,55 Ave,V3S3C3,6045438178,CTC,-122.6824606,49.10220438
Behavioural Health Care,Clinical Psychologists,240,7164,120 St,V3W3M8,6045928348,NTC,-122.8898254,49.13337918
Westwood Wholesale Lumber Ltd,Whlse. Lumber,,10963,125 St,V3V6P1,6045801084,WTC,-122.8761569,49.20192754
Beachcomber Hot Tubs Group Partnership,Manufacturer - Spa & Pool Chemicals,,13450,76 Ave,V3W7P8,6045918611,NTC,-122.8497021,49.14074872
Tap House The,Cabaret,,15330,102A Ave,V3R7R6,6045838828,GTC,-122.7974932,49.1886146
Restwell Mattress Co Ltd,Mfg. - Mattresses,,14922,54A Ave,V3S5X7,6045762339,NTC,-122.8091754,49.10167476
Taoist Tai Chi Society of Canada,Tai Chi - Non Profit Organization,106,13479,76 Ave,V3W2W3,6045070700,NTC,-122.849007,49.141013
Element Materials Technology Inc,Analytical Laboratory,104,19575,55A Ave,V3S8P8,6045143322,CTC,-122.6805499,49.10309037
Advance Tank Centres Ltd,Tank Trailer Service & Repairs.,300,19325,96 Ave,V4N4C4,6048882610,GTC,-122.6863564,49.17718599
Cloverhill Market,"Retail Groceries, Gas",,5996,184 St,V3S4N4,6045762215,CTC,-122.7123725,49.11122362
Essential Auto Collision Ltd,"Auto Rebuilder, Sales",,7795,132 St,V3W4M8,6045962111,NTC,-122.8570074,49.14455395
Remax Colonial Pacific Realty Ltd,Real Estate Serv.,,15414,24 Ave,V4A2J3,6045414888,SSTC,-122.7953392,49.04544385
Ben Gauer & Associates Ltd,Real Estate Serv.,6,9965,152 St,V3R4G5,6045813838,GTC,-122.8012729,49.18379312
Fifth Avenue Real Estate Marketing Ltd,Real Estate Office,8,15243,91 Ave,V3R8P8,6045832212,FTC,-122.7998524,49.16845099
U P S Store The,Mail Box Rentals & Business Services,1104,7360,137 St,V3W1A3,6045726245,NTC,-122.8426389,49.13640026
T B C Teletheatre B C,Off Track Wagering Head Office,220,17667,65A Ave,V3S1Z8,6045746900,CTC,-122.7329212,49.12133167
Guildford A Laundry,"Laundromat, Dry Cleaning",,14920,104 Ave,V3R1M7,6045816311,GTC,-122.808034,49.19133491
Colliers Macaulay Nicolls Inc,Real Estate Office,1850,13450,102 Ave,V3T5X3,6046814111,SCC,-122.8487665,49.18791904
Ward Watkins Insurance Brokers Surrey Ltd,Insurance Serv.,,5746,176A St,V3S4H2,6045766761,CTC,-122.7335202,49.10676448
Charger Engineering Ltd,Engineering,8,9510,189 St,V4N4W7,6048883682,GTC,-122.6986442,49.17544078
Maple Pizza and Grace Market Ltd ,Pizza Takeout,,10063,117 St,V3V1C8,6045820006,WTC,-122.8988844,49.1856248
Van Gogh Designs Furniture Ltd,Manufacturer - Furniture,,19178,34A Ave,V3Z1A7,6043723001,SSTC,-122.6927856,49.06431833
Eagle Picher Energy Products Corp,Mfg.- Batteries,,13136,82A Ave,V3W9Y6,6045434350,NTC,-122.8587074,49.15230867
J B S Automobile Ltd,Auto Repair,,10755,124 St,V3V4T5,6045808000,WTC,-122.8789053,49.19819834
Mister Transmission,Auto Repair Service,,13704,104 Ave,V3T1W4,6045887484,SCC,-122.8424703,49.19141995
Save On Telecom,Retail Sales - Cellular Phones,120,10362,King George Hwy,V3T2W5,6045852196,SCC,-122.8450561,49.19096128
De Dutch Pannekoek House Restaurants,Admin. Office,108,8484,162 St,V4N1B4,6045433101,FTC,-122.7730625,49.15708695
Long & McQuade Ltd,Retail Sales - Musical Instruments,,13785,104 Ave,V3T1W6,6045889421,SCC,-122.8401248,49.19176155
Cashnow Solutions (Surrey) Inc,Used Merchandise,153,10090,152 St,V3R8X8,6045818930,GTC,-122.8005815,49.18575463
Canadian Railing Ltd,Manufacturer - Aluminum Railings,12,13015,84 Ave,V3W1B3,6045013903,NTC,-122.8620631,49.15571126
Fraser Glen Pizza,Restaurant,,16814,104 Ave,V4N4L8,6045836661,GTC,-122.7560494,49.19147317
Dr Dorothy Sonya Inc,Professional Practitioner-Dentist/Orthodontist,310,1959,152 St,V4A9E3,6045353028,SSTC,-122.8014669,49.03727504
Fusion Beauty Skin & Nails Inc,Beauty Studio,,13511,102 Ave,V3T4X8,6045836245,SCC,-122.8473868,49.18801362
Pick & Chews Terriyaki,Restaurant,143,1711,152 St,V4A4N3,6045359956,SSTC,-122.801669,49.0331143
Andy Sorensen Autobody & Frame Ltd,Autobody Repair Shop,,14771,64 Ave,V3S1X6,6045908180,NTC,-122.8132263,49.11928469
Subway (7750 - 128 St),Restaurant,101,7750,128 St,V3W0R6,6045437824,NTC,-122.8676534,49.14358109
Scott Navarro Physiotherapy Clinic,Physiotherapy,,8620,120 St,V3W3N6,6045902804,NTC,-122.8900772,49.15998438
Homelife Benchmark Realty Corp (152 St),Real Estate Office,1,1920,152 St,V4A4N6,6045311111,SSTC,-122.8009122,49.03682647
Bishuya Udon,Mfg. - Noodles,1,8528,123 St,V3W3V6,,NTC,-122.8814617,49.1580856
Ziggy's Merchandise (#13 12772 - 82 Ave),"Whlse. Second Hand Merchandise,Automobile Dealer/Rebuilder,Auto Body/Painting,Warehouse",13,12772,82 Ave,V3W0R1,,NTC,-122.8690894,49.15068713
Subway (17710 - 56 Ave),Restaurant,103,17710,56 Ave,V3S1C7,,CTC,-122.7315821,49.10322166
Pizza Hut,Restaurant - No Alcohol,,1738,152 St,V4A4N4,,SSTC,-122.8010486,49.0336339
Villa Electric 1980 Ltd,"Contractor - Electrical, Inter-Municipal Business License Metro",3,5492,Production Blvd,V3S8P5,,CTC,-122.6815118,49.10198127
Custom Coatings,Coating Railings,12,10655,Timberland Rd,V3V3T3,,WTC,-122.8978259,49.19618023
Orca Specialty Foods Ltd,Secondary Fish Processing,4,17350,56 Ave,V3S1C3,,CTC,-122.7405075,49.1030475
Best Market,Retail Sales - Convenience Store,,16790,24 Ave,V3S0B8,,SSTC,-122.7575446,49.04551707
Taqwa Halal Foods,Manufacturer - Meat Products,200,8462,162 St,V4N1B4,,FTC,-122.7730725,49.15654536
Semiahmoo Fish & Game Club,Non Profit,,1284,184 St,V4P1M7,,SSTC,-122.7129828,49.0256742
Bhambra Woodworking Ltd,Mfg. - Woodwork,307,7728,128 St,V3W1L3,,NTC,-122.8676693,49.1427663
Sunrise Poultry Processors Ltd,Mfg. - Poultry Products,,13542,73A Ave,V3W1C9,,NTC,-122.847758,49.13636771
Fieldstone Artisan Breads Co Inc,Bakery,2,12823,Crescent Rd,V4P1J6,,SSTC,-122.8669833,49.05320652
Langley Fiat,"Auto Dealer,Automotive Repair Service ",,19550,No 10 (Langley Bypass) Hwy,V3S7R2,,CTC,-122.6809011,49.10899633
Sources White Rock South Surrey Food Bank,Non Profit Organization - Food Bank,,2343,156 St,V4A4V5,,SSTC,-122.7904361,49.04454296
Lifemark Hazelwood,"Professional Practitioner-Medical/Physiotherapy, Part Time Medical Practitioner - Physiotherapy",203,16088,84 Ave,V3S2P1,,FTC,-122.7763379,49.15517355
Dago Diesel Inc,Heavy Duty Mechanical Repairs,109,9634,192 St,V4N4C6,,GTC,-122.6900272,49.1777739
Newton Auto Care,Auto Repair,1,13409,72 Ave,V3W2N7,,NTC,-122.8507515,49.13378389
Bank of Montreal (7140 - 120 St),Banking,,7140,120 St,V3W3M8,,NTC,-122.8900654,49.1329022
Boston Pizza (10153 King George Hwy),Restaurant,1081,10153,King George Highway,V3T2W1,,SCC,-122.8474019,49.18559446
Luiz Leon & Associates Ltd,Professional Practitioner-Engineer/Structural,205,15272,Croydon Dr,V3S0Z5,,SSTC,-122.8001423,49.05977516
Carnello & Co,Legal Serv.,200,10388,East Whalley Ring Rd,V3T4H4,,SCC,-122.8416724,49.19095584
Choice Billiards & Cafe Ltd,Dining Lounge,105,7728,128 St,V3W1L3,,NTC,-122.8676693,49.1427663
M & M Pacific Coast Farms,Retail Farm Produce,,4962,152 St,V4P2J9,,NTC,-122.8007659,49.0927745
Acadia Commercial Interiors Ltd,Manufacturer - Wood Products,111,13119,84 Ave,V3W1B3,,NTC,-122.8590252,49.15556559
Pacific Equine Clinic,Veterinary Serv.,,17740,62 Ave,V3S4C6,,CTC,-122.7308511,49.11555279
OpenRoad Richmond Auto Body White Rock,"Auto Body Repair, Used Auto Dealer",,2450,King George Blvd,V4P1H5,,SSTC,-122.7943045,49.04666018
Discount Tire,Tire Installations,65,15515,24 Ave,V4P1H5,,SSTC,-122.7926614,49.04577262
Sterling Kitchens & Bath Inc,Manufacturing - Cabinet,212-,12745,78 Ave,V3W1M4,,NTC,-122.8695836,49.14477142
Mishra And Maxwell C A's,Professional Practitioner-Accountant,201,16055,Fraser Hwy,V4N0G2,,FTC,-122.7771027,49.1569391
Arktos Developments Ltd,Mfg. - Amphibious Rescue Vehicles,,12634,82 Ave,V3W3G1,,NTC,-122.8725453,49.15174812
Anjali's Dosa Garden,Restaurant - Fast Food,4,13560,77 Ave,V3W6Y3,,NTC,-122.8470645,49.14253796
Super Save Gas,"Gas Station,Snack Shop",,19415,No 10 (Langley Bypass) Hwy,V3S6K1,,CTC,-122.6857889,49.10732879
Burnside Apartments,Apartment Rentals,,13784,101 Ave,V3T1L4,,SCC,-122.8403644,49.18593139
Scott Hill Pizza,Restaurant,103,9380,120 St,V3V4B9,,WTC,-122.88992,49.17352547
Cloverdale Paint Inc (3033 King George Hwy),Retail Paint & Supplies,3,3033,King George Hwy,V4P1B8,,SSTC,-122.8081268,49.0568465
Speedpro Signs Langley,Signs & Printing Service,18,18812,96 Ave,V4N3R1,,GTC,-122.7008886,49.17684416
World Famous Chicken World,Restaurant,14,13775,72 Ave,V3W9Z1,,NTC,-122.839071,49.13379072
Zella's Coin Laundry,"Laundomat, Dry Cleaning,Laundromat",,14791,108 Ave,V3R1V9,,GTC,-122.8128864,49.19888431
Ionic Architecture Inc,Professional Practitioner-Architect,201,5500,152 St,V3S5J9,,NTC,-122.8000821,49.10292455
White Rock Optometry Clinic,Optometrist,102,1656,Martin Dr,V4A6E7,,SSTC,-122.8050313,49.03206461
Shoppers Drug Mart No 265,Retail Sales - Pharmacy,104,17790,No 10 (56 Ave) Hwy,V3S1C7,,CTC,-122.7297145,49.10338649
Husky Clayton,Retail Sales - Convenience Store,,18398,Fraser Hwy,V3S8E7,,CTC,-122.7128708,49.12862602
Bradford Rathborne Law,Professional Practitioner-Lawyer,200,2099,152 St,V4A4N7,,SSTC,-122.8014286,49.03988819
Stor-More Closet & Blinds Ltd,Whlse. Shelving System & Blinds,102,5630,Landmark Way,V3S7H1,,CTC,-122.6845368,49.10520376
Whitecliff,Seniors Retirement Home,,15501,16 Ave,V4A9M5,,SSTC,-122.7930744,49.03127682
Dr K S Sangha Inc,Professional Practitioner-Dentist,104,12568,72 Ave,V3W2M6,,NTC,-122.8747296,49.13372909
Class O P Pizza,Pizza Restaurant,15,3189,King George Hwy,V4P1B8,,SSTC,-122.8116169,49.05963853
Cloverdale Paint Inc,Wholesale - Paints,102/,18770,96 Ave,V4N3R1,,GTC,-122.7024425,49.17677202
Little Tea House,Restaurant.,101G,15277,100 Ave,V3R8X2,,GTC,-122.7987902,49.1844401
Surdel Chiropractic,Chiropractor,,8232,120 St,V3W3N4,,NTC,-122.8900713,49.15293824
Pacific Carlton Seniors Residence Society,Apartment Rentals,,15366,17 Ave,V4A1J9,,SSTC,-122.7963745,49.03276382
Co-operators Insurance Agencies Ltd ,Insurance Agency,107,15277,100 Ave,V3R8X2,,GTC,-122.7987902,49.1844401
Metro Can Construction Ltd,Contractor - Construction,520,10470,152 St,V3R0Y3,,GTC,-122.8005444,49.19270855
Fraser Joe's Farm Market,Retail - Produce,,8932,152 St,V3R4E4,,FTC,-122.8012982,49.16480584
KFC/Taco Bell Cloverdale,Restaurant,,17740,No 10 (56 Ave) Hwy,V3S1C7,,CTC,-122.7308805,49.10394205
Opal Dental,Professional Practitioner-Dentist,,10608,King George Blvd,V3T2X3,,SCC,-122.8449099,49.1955717
Newton Dental Group,Professional Practitioner-Dentist,,6700,King George Hwy,V3W4Z5,,NTC,-122.8453901,49.12434241
Remax 2000 Realty (100 Ave),Real Estate Serv.,103,15127,100 Ave,V3R0N9,,GTC,-122.8031241,49.18523907
Hamilton Duncan Armstrong & Stewart (108 Ave),Professional Practitioner-Lawyer,1450,13401,108 Ave,V3T5T3,,SCC,-122.8502549,49.1990937
622151 B C Ltd,"Service Station,Automated Teller Machine",,19186,96 Ave,V4N3R3,,GTC,-122.6910729,49.17680764
Langley Saw Sharpening & Abrasive Product Ltd,Saw Sharpening,1,5684,Landmark Way,V3S7H1,,CTC,-122.6843504,49.10618551
B & B Truss Partnership,Mfg. - Trusses,,13236,76 Ave,V3W2W1,,NTC,-122.8556622,49.14076273
Sidhu Inc Dr Rajvinder Singh,Dental Office,215,7110,120 St,V3W3M8,,NTC,-122.8900661,49.13227008
Pole Inc Dr C L,Medical Office,108,14914,104 Ave,V3R1M7,,GTC,-122.8083471,49.19133785
Artek Group Limited The,General Cont.,,12140,103A Ave,V3V3G8,,WTC,-122.8858385,49.19052155
Brainchild Education Centre,Computer Knowledge Centre,202,10331,150 St,V3R4B1,,GTC,-122.8067136,49.19026874
Canuel Caterers Kwantlen Park Secondary School,Cafeteria at Kwantlen Park Secondary School,,10441,132 St,V3T3V3,,SCC,-122.8566797,49.19222044
Andreou Inc Dr C,Medical Office,302,13798,94A Ave,V3V1N1,,WTC,-122.8405397,49.17452324
King George Shell,Retail Merchant - Convenience Store,,3155,King George Hwy,V4P1B8,,SSTC,-122.8106202,49.05887407
Crescent Beach Bistro,Restaurant,,12251,Beecher St,V4A3A4,,SSTC,-122.8824041,49.05283008
Pets First Products and Services Inc,Whlse. Pet Food,104,19130,24 Ave,V3S9V2,,SSTC,-122.6938844,49.0454511
Dhaliwal & Associates Land Surveying Inc,Professional Practitioner-Land Surveyor,216,12899,76 Ave,V3W1E6,,NTC,-122.8649023,49.14118753
Christian & Missionary Alliance Canadian Pacific Dist,Church,101,17660,65A Ave,V3S5N4,,CTC,-122.7339008,49.12099735
A E Concrete Products Inc,Manufacturing - Precast Concrete,,19060,54 Ave,V3S8E5,,CTC,-122.6949979,49.10059514
Plastec Innovatiove Plastic Solutions,Mfg. - Plexiglass Fabrication,,9643,186 St,V4N3N8,,GTC,-122.7079102,49.17778363
Kel Tech Automotive Ltd,Auto Repair Shop,201,12779,80 Ave,V3W3A6,,NTC,-122.8686791,49.14836344
Murchison Thomson & Clarke,Legal Serv.,101,7565,132 St,V3W1K5,,NTC,-122.8570037,49.14026955
Revo Meena's Beauty Hair Salon Ltd,"Hair Salon, Esthetician - Waxing & Laser Hair Removal",8,6828,128 St,V3W4C9,,NTC,-122.8675312,49.12696263
Speedy Shoe Service,Shoe Repair & Key Cutting Service,130,15355,24 Ave,V4A2H9,,SSTC,-122.7975044,49.04583671
Doma Sushi Restaurant,Dining Room,407,16033,108 Ave,V4N1P2,,GTC,-122.7777544,49.1989669
G & G Truck & Trailer Repair Ltd,Automotive Repair Service,,13155,116 Ave,V3R2S8,,WTC,-122.8575406,49.21363793
Overland Freight International OFI Inc,International Freight Forwarding,,11398,Bridgeview Dr,V3R0C2,,WTC,-122.862471,49.2096809
Hillside Products Ltd,Mfg. - Food Products,102,13483,78 Ave,V3W0A8,,NTC,-122.8485004,49.14465398
Duradek Canada Ltd,Wholesale - Vinyl,,8288,129 St,V3W0A6,,NTC,-122.8651928,49.15305025
Quadro Coatings Inc,Whlse. Vinyl & Coating Products,,8288,129 St,V3W0A6,,NTC,-122.8651928,49.15305025
La Capitale Financial Security ,Insurance Agent,300,13889,104 Ave,V4N2B1,,SCC,-122.8373135,49.19169055
Energy Electric Ltd,Contractor - Electrical,116,18525,53 Ave,V3S7A4,,CTC,-122.7090156,49.09906465
Kheng Lee Ooi Law Corp,Law Office,206,15957,84 Ave,V4N0W7,,FTC,-122.7802443,49.15560921
Izumo Sushi Japanese Restaurant,Restaurant,,13631,100 Ave,V3T1H9,,SCC,-122.844336,49.18443942
Westin Pizza,Restaurant,A,7182,120 St,V3W3M8,,NTC,-122.8901193,49.13365221
Deckers Auto Parts,Retail Car Parts,2,13890,104 Ave,V3T1W9,,SCC,-122.8372012,49.19135352
Skyline Apartments,Apartment/Townhouse Rental,,13929,101 Ave,V3T5R9,,SCC,-122.8362446,49.18619053
Westcraft Lighting & Electrical Supply Ltd,Whlse. Lighting & Electrical Supplies,5,12988,84 Ave,V3W0K6,,NTC,-122.8629833,49.15519492
Turnkey Technology Inc,Mfg. - Moldmaking & Injection Molding,129,18860,24 Ave,V3Z0Y8,,CTC,-122.7007207,49.0453554
Dhaliwal Sweets Ltd,Sweet Shop,4,8430,128 St,V3W4G3,,NTC,-122.8676984,49.15584278
Khalsa Bakery & Pizza,Coffee Shop,1,13136,84 Ave,V3W1J1,,NTC,-122.8586539,49.15520396
J Simons Securities Ltd,Auto Sales,,12727,King George Hwy,V3V3K7,,WTC,-122.8693478,49.20646822
Crescent Beach Veterinary Clinic,Veterinary Clinic,6,12823,Crescent Rd,V4P1J6,,SSTC,-122.8669833,49.05320652
Canadian Astro Supplies Ltd,Warehouse - Packaging,6,19158,94 Ave,V4N4X8,,GTC,-122.6917855,49.17319754
Tru Line Drafting Services Inc,Structural Steel Drafting Service,201,10422,168 St,V4N1R9,,GTC,-122.7562559,49.19205936
Viaduct Sheet Metal Ltd,"Mfg. - Sheet Metal,Tire Retreading,Repair Service,Inter-Municipal Business License FV",,18787,52 Ave,V3S8E5,,CTC,-122.70253,49.09728466
Canadian 2 For 1 Pizza,Restaurant,2,13791,72 Ave,V3W9Y9,,NTC,-122.8390605,49.13426937
Great Clips For Hair (15930 Fraser Hwy),Hair Salon,302,15930,Fraser Hwy,V4N0X8,,FTC,-122.7818799,49.15706506
Cammack Hepner Notary Corporation,Professional Practitioner-Notary,106,1656,Martin Dr,V4A6E7,,SSTC,-122.8050313,49.03206461
Advance Tech Autobody & Paint Ltd,Autobody Repair & Painting,7,8365,124 St,V3W9G2,,NTC,-122.8793182,49.15493734
Murray Mechanical Engineered Sales,Heating Distributor,404,1688,152 St,V4A4N2,,SSTC,-122.8008931,49.03243524
Soboya Sushi,Japanese Restaurant,120,8952,152 St,V3R4E4,,FTC,-122.8007781,49.16530528
Finning Canada (19100 - 94 Ave),Equipment Dealer,,19100,94 Ave,V4N5C3,,GTC,-122.6936223,49.17320911
Royal LePage Westgard Realty,Real Estate Services,201,15272,Croydon Dr,V3S0Z5,,SSTC,-122.8001423,49.05977516
Dynamic Auto Centre Ltd,Auto Body/Painting,105,8918,120A St,V3V4H2,,WTC,-122.8900764,49.16525554
Celltex Collision Repairs Ltd,Rebuilt Auto Sales,6,12334,84 Ave,V3W0J5,,NTC,-122.8809979,49.15559585
Four Points by Sheraton Surrey,Hotel/Motel,,10410,158 St,V4N5C2,,GTC,-122.7839164,49.19204926
La Belle Fleur Floral Boutique,Retail Florist,148,6350,120 St,V3X3K1,,NTC,-122.8900634,49.11815677
Westland Insurance Group Ltd,Insurance Agency,125,1959,152 St,V4A9E3,,SSTC,-122.8014669,49.03727504
Kwan Kee Noodle House,Food Court Restaurant,101D,15277,100 Ave,V3R8X2,,GTC,-122.7987902,49.1844401
Fraserview Chevron,Gas Station,,10732,128 St,V3T3A1,,SCC,-122.867469,49.19729578
Key West Forest Products,Lumber Yard,,12450,109 Ave,V3V3J5,,WTC,-122.8773153,49.20063572
Liberty Contract Management Inc,"General Construction Contractor,Contractor - General/Construction ",316,19292,60 Ave,V3S3M2,,CTC,-122.6893519,49.11114739
Landmark Cinema 12 Guildford,Movie Theatre - Video Games,,15051,101 Ave,V3T4C9,,GTC,-122.8050192,49.18627117
Mainsource International Trading Corp,Hardware,214/,12899,76 Ave,V3W1E6,,NTC,-122.8649023,49.14118753
Fruiticana #1,Retail Sales - Fruits & Vegetables,,13783,72 Ave,V3W2P2,,NTC,-122.8398259,49.1342919
Maharani Sweets & Restaurant Ltd,Fast Food Restaurant,,9320,120 St,V3V4B8,,WTC,-122.8899151,49.17223237
Fleetwood Park Dental Centre,Dental Clinic,503,15950,Fraser Hwy,V4N0X8,,FTC,-122.780242,49.15767131
All Critters Animal Hospital,Veterinary Hospital,300+,15930,Fraser Hwy,V4N0X8,,FTC,-122.7818799,49.15706506
Advanced Hearing Solutions Inc,Retail Audiological Equip.,5,6450,120 St,V3W3M5,,NTC,-122.8900805,49.12012336
Pharmasave No 248,Retail Sales - Pharmacy,409,15940,Fraser Hwy,V4N0X8,,FTC,-122.7809649,49.15704507
Bay City Insurance Services Ltd,Insurance Agency,103,15127,56 Ave,V3S9A5,,NTC,-122.8052317,49.10542517
White Rock Surrey U Lock Mini Storage,Self Storage,,15028,32 Ave,V4P1A3,,SSTC,-122.8059218,49.05996708
Church's Chicken,Restaurant,1,14877,108 Ave,V3R1W2,,GTC,-122.8092791,49.19944932
Cloverdale Park Chevron,Convenience Store,,17617,64 Ave,V3S1Z2,,CTC,-122.7342862,49.11896585
Tomato Shack Pizza,Dining Lounge,,10322,Whalley Blvd,V3T4H4,,SCC,-122.8417068,49.19020269
Abercromby Melnychuk Chartered Professional Accountants,Chartered Accountants,305,15127,100 Ave,V3R6Y8,,GTC,-122.8031241,49.18523907
Columbia Remtec Manufacturing,Manufacturer - Tanks,A,12343,104 Ave,V3V3H2,,WTC,-122.8834666,49.19257619
Husky Gas,Gasoline Station,,7812,120 St,V3W3N2,,NTC,-122.8900985,49.14528253
Fraserview Cedar Products,Mfg. - Cedar Fences,,6630,144 St,V3W5R5,,NTC,-122.8230669,49.1231529
The Jin Sushi ,Dining Room,1101,7360,137 St,V3W1A3,,NTC,-122.8426389,49.13640026
Quizno's #674,Restaurant,403,15940,Fraser Hwy,V4N0X8,,FTC,-122.7809649,49.15704507
Prospera Credit Union,Credit Union,100,15288,Fraser Hwy,V3R3P4,,FTC,-122.7984992,49.16475419
Crescent Park Market,Retail Groceries,,2507,128 St,V4A3W4,,SSTC,-122.8676156,49.04823158
Canada Trust (15960 Fraser Hwy),Banking,601,15960,Fraser Hwy,V4N0X8,,FTC,-122.7807144,49.1578433
Golden Medal Restaurant,Dining Room,,5619,176A St,V3S4G8,,CTC,-122.7338308,49.10463552
