X,Y,OBJECTID,Name,Address,Unit,MUN,PostalCode,Telephone,Fax,Email,Website,LinkedIn,Facebook,Twitter,Instagram,OtherSocial,NAICS_2,NAICS2desc,Bus_NAICS,EmplRange,DataNotes,GlobalID,Longitude,Latitude
-8885843.211,5442927.0722,1,Albion Orchards,14800 Innis Lake Rd,,Caledon,L7C 2Y8,905-584-0354,905-584-0354,office@albionorchards.com,http://www.albionorchards.com,,https://www.facebook.com/albionorchards,@AlbionOffice,@albion_orchards,,11,"11-Agriculture, forestry, fishing and hunting",111993,5 to 9,,732fbae9-e7fa-457c-a45b-10e6388a5bd7,-79.8228841455,43.8543217434
-8894156.0859,5418969.3768,2,Alvista Farms,12722 Heritage Rd,,Caledon,L7C 1T3,905-873-6811,,alvistafarms@gmail.com,,,,,,,11,"11-Agriculture, forestry, fishing and hunting",111219,1 to 4,,79259700-7b70-4c6d-99ea-a8c344894bde,-79.8975599609,43.6989270826
-8885593.4491,5432232.803,3,Armstrong Manor Farm,13079 Dixie Rd,,Caledon,L7C 2M6,905-838-2402,905-838-1659,armstrongmanorfarm@hotmail.com,http://www.armstrongmanorfarm.ca,,https://www.facebook.com/armstrongmanorfarm,@ArmstrongManor,,,11,"11-Agriculture, forestry, fishing and hunting",112120,10 to 19,,714092f1-bdfc-4eea-b87e-074004d4f11c,-79.8206405033,43.7850063564
-8901479.4168,5454285.3028,4,Bayshore Farms,19293 Mountainview Rd,,Caledon,L7K 2G5,647-448-4484,,info@bayshorefarms.com,http://www.bayshorefarms.com,,,,,,11,"11-Agriculture, forestry, fishing and hunting",112920,5 to 9,,,-79.9633465208,43.9278525075
-8911814.8269,5435054.3542,5,Cambium Farms,81 Charleston Side Rd,,Caledon,L7K 0R9,519-927-9952,,mail@cambiumfarms.com,http://www.cambiumfarms.com,https://www.linkedin.com/company/cambium-farms?trk=tyah,https://www.facebook.com/CambiumFarms?sid=0.7727807066403329,@CambiumFarms,@cambiumfarms,,11,"11-Agriculture, forestry, fishing and hunting",111999,20 to 49,,75c4ad6e-c113-41f6-8a4d-2bce74d41e29,-80.0561910705,43.8033021933
-8885089.1004,5428972.9701,6,Cationdale Farms,12505 Heart Lake Rd,,Caledon,L7C 2K4,416-565-8528,519-307-2759,,,,,,,,11,"11-Agriculture, forestry, fishing and hunting",111190,1 to 4,,,-79.816109865,43.7638616002
-8891301.847,5443187.2216,7,Davis Family Farm,15770 Mountainview Rd,,Caledon,L7C 2V2,905-965-8201,905-584-2855,sales@davisfamilyfarm.ca,http://www.davisfamilyfarm.ca,,https://www.facebook.com/davisfamilyfarmcaledon,,@davisfamilyfarmcaledon,,11,"11-Agriculture, forestry, fishing and hunting",111120,5 to 9,,2928b2b5-9cfd-4411-88d0-088f46592ab6,-79.8719198906,43.8560069133
-8888266.6208,5455531.1494,8,DeerFields Stables Inc.,17084 Duffys Lane,,Caledon,L7E 3C2,905-880-5585,905-880-5587,,http://www.deerfieldsstables.ca,,https://www.facebook.com/deerfields?fref=nf,,,,11,"11-Agriculture, forestry, fishing and hunting",112920,1 to 4,,baf88f64-6bac-4341-a497-d962c7add815,-79.8446539918,43.9359123222
-8899252.9274,5456968.5466,9,Donnyweir Poultry Farm,19353 Glen Haffy Rd,,Caledon,L7K 2L4,905-584-2470,,,,,,,,,11,"11-Agriculture, forestry, fishing and hunting",112391,1 to 4,,191e116e-6301-4885-83f5-e28d243e2762,-79.9433456304,43.9452099974
-8888757.5687,5432343.2013,10,Downey’s Farm Market & Estate Winery,13682 Heart Lake Rd,,Caledon,L7C 2J5,905-838-2990,,info@downeysfarm.com,http://www.downeysfarm.com,,https://www.facebook.com/DowneysFarm/,,@downeysfarm,,11,"11-Agriculture, forestry, fishing and hunting",111330,20 to 49,,2fdfc153-856b-43e9-9fa8-9191ce3d0cfd,-79.8490642637,43.78572232
-8888675.1516,5432564.102,11,Downey’s Strawberry & Apple Farm,13707 Heart Lake Rd,,Caledon,L7C 2K7,905-838-4777,,gregdowney@hotmail.ca,http://www.downeysupickfarm.com,,,,,,11,"11-Agriculture, forestry, fishing and hunting",111219,20 to 49,,8f8dab83-d5d0-4f0a-86fe-2c1c19db519c,-79.8483238988,43.7871548949
-8881654.1782,5435851.1553,12,Early's Farm Supply,12926 Airport Rd,,Caledon,L7C 2W2,905-460-4630,,eaglesearly@yahoo.ca,,,https://www.facebook.com/earlysfarmandgarden,@earlysgarden,,Pinterest: www.pinterest.com/earlysfarm,41,41-Wholesale trade,419120,1 to 4,,21aa5df5-6871-4767-90c0-73db4a7cc7ee,-79.7852534399,43.8084678755
-8889732.5771,5422488.4957,13,Forest Lawn Farms Ltd.,12407 Chinguacousy Rd,,Caledon,L7C 3H1,905-843-1177,905-843-0077,dhsnyder@sympatico.ca,,,,,,,56,"56-Administrative and support, waste management and remediation services",561730,10 to 19,,b49ec457-128f-441e-abb2-991a04ed2f51,-79.8578229157,43.7217781293
-8879802.9175,5438683.4811,14,Kooner Farms,6824 Healey Rd,,Caledon,L7C 0W8,416-858-4639,,koonerfarms@hotmail.com,http://www.koonerfarms.com,,https://www.facebook.com/koonerfarms/,,,,11,"11-Agriculture, forestry, fishing and hunting",111219,10 to 19,,e3bdbb20-8921-4d22-8a39-30109c70abea,-79.7686232855,43.8268263445
-8897737.3031,5457874.699,15,Left Field Farm at Peace Ranch,19179 Centreville Creek Rd,,Caledon,L7C 3L8,905-584-9156,905-584-0928,info@peaceranch.com,http://www.peaceranch.com/peace-ranch-market-garden.aspx,,,,,,11,"11-Agriculture, forestry, fishing and hunting",111219,10 to 19,,2882f6df-a957-4ec0-8d48-475c0f91c937,-79.9297305494,43.9510706126
-8888297.2401,5439889.4319,16,Mono-Lea Farms Ltd.,14676 Torbram Rd,,Caledon,L7C 2T2,905-584-2534,905-584-7844,barnzone1@gmail.com,,,,,,,11,"11-Agriculture, forestry, fishing and hunting",112320,1 to 4,,,-79.8449290586,43.8346413248
-8913456.2385,5447237.2988,17,Mulberry Moon Farm,2052 Highpoint Side Rd,,Caledon,L7K 0H9,647-377-8486,,mulberrymoonorganics@gmail.com,http://www.mulberrymoonorganics.ca,,https://www.facebook.com/pages/Mulberry-Moon-Farm/155790101244709,,@mulberrymoonfarm,,11,"11-Agriculture, forestry, fishing and hunting",111219,1 to 4,,df623680-e82d-4373-93f8-80a95890c5ce,-80.0709361105,43.8822359294
-8917441.7467,5443907.0196,18,Shaws Creek CSA Farm,20725 Shaws Creek Rd,,Caledon,L7K 1L7,519-941-1099 or 416-526-4237,,info@wholevillage.org,http://www.wholevillage.org,,,@WholeVillageEco,,,11,"11-Agriculture, forestry, fishing and hunting",111993,1 to 4,,9fb51d1f-2a93-4a2b-80b3-7908bc63f48c,-80.1067385305,43.8606693048
-8884170.4533,5430634.4786,19,Sunnymead Farms Ltd.,12587 Dixie Rd,,Caledon,L7C 2M5,416-561-7299,905-843-1336,sunnymeadfarmsltd@gmail.com,,,,,,,11,"11-Agriculture, forestry, fishing and hunting",112110,5 to 9,,,-79.8078575194,43.7746398325
-8880707.1952,5432482.4344,20,Tullamore Farms,12201 Torbram Rd,,Caledon,L7C 2T4,905-843-1236,,tullamore.angus@gmail.com,,,,,,,11,"11-Agriculture, forestry, fishing and hunting",112110,1 to 4,,f31aba49-92f4-49c0-ab2d-8558b0dfd5f7,-79.7767465508,43.7866252688
-8879812.3771,5438377.86,21,Upright Nurseries,6777 Healey Rd,,Caledon,L7C 0X2,905-857-7967,,info@uprightnurseries.com,http://www.uprightnurseries.com,,,,,,11,"11-Agriculture, forestry, fishing and hunting",111421,1 to 4,,1dcdefb3-c6e0-4a28-8533-22eed2db8414,-79.7687082621,43.8248456519
-8882859.5524,5445241.4651,22,Van Dyken Bros,14510 The Gore Rd,,Caledon,L7C 3E3,905-857-3561,,vandykenfarm@gmail.com,,,https://www.facebook.com/VanDykenFarm/,,,,11,"11-Agriculture, forestry, fishing and hunting",111219,5 to 9,,9516d3ba-0d14-42ab-bb26-d8413cfc9b68,-79.7960814916,43.8693119916
-8903201.6189,5425375.6503,23,Wetmore Stables Inc.,4966 Winston Churchill Blvd,,Caledon,L0P 1N0,416-417-8424,,npwhorses@aol.com,http://www.nancywetmore.com,https://ca.linkedin.com/in/nancy-wetmore-1968a637,https://www.facebook.com/nancy.wetmore.12?fref=ts,@Symoe,,,11,"11-Agriculture, forestry, fishing and hunting",115210,1 to 4,,,-79.9788173371,43.7405190806
-8893767.4031,5432942.7125,24,Winbak Farm of Canada Inc.,14709 Hurontario St,,Caledon,L7C 2E2,905-838-2145,905-838-3814,winbakcanada@bellnet.ca,http://www.winbakfarm.com,,https://www.facebook.com/WinbakFarm,@WinbakFarm,,,11,"11-Agriculture, forestry, fishing and hunting",112920,5 to 9,,8242ea02-eb3c-4dc6-bacb-602acbcdd832,-79.8940683575,43.7896101641
-8908203.422,5447266.5825,25,A-Plus Towing & Float Service,19479 Hurontario St,,Caledon,L7K 1X4,519-927-9855,519-942-1699,aplustow@hotmail.ca,,,,,,,48,48/49-Transportation & Warehousing,488410,1 to 4,,f24ecfd8-f844-4e30-9ef1-3186473323f2,-80.0237492719,43.8824255315
-8878131.1492,5445513.8318,26,AAA Bolton Taxi,5 Cedargrove Rd,,Caledon,L7E 2L4,905-857-4200,,,,,,,,,48,48/49-Transportation & Warehousing,485310,20 to 49,,0a8eadc0-3bbb-4673-8a7d-4df8d43e6986,-79.7536055363,43.8710758521
-8898537.0915,5435036.4167,27,Accurate (Peel) Appraisals Inc.,10 McColl Dr,,Caledon,L7C 3L6,905-838-2490,905-838-4440,admin@reappraisals.ca,http://www.reappraisals.ca,,,@re_appraisals,,,53,53-Real estate and rental and leasing,531320,5 to 9,,2a5c6742-ecb8-49c9-9cf2-936a3fcc9609,-79.9369151819,43.8031858926
-8902775.0553,5446549.513,28,Adlogic Advertising Inc.,3911 Charleston Side Rd,,Caledon,L7K 0S5,519-927-9613,,design@adlogic.ca,,,,,,,54,"54-Professional, scientific and technical services",541810,1 to 4,,d2967ca9-912a-4b0e-bc25-0e8c138c09a2,-79.9749854399,43.8777825174
-8876916.2422,5447734.1129,29,Albion Realty Inc.,77 Wright Cres,,Caledon,L7E 3X6,905-857-8700,905-857-8702,adiiulio@trebnet.com,,,,,,,53,53-Real estate and rental and leasing,531212,5 to 9,,8f6a9863-7a44-4f22-9477-a373a9cd519d,-79.7426918431,43.8854525741
-8904247.1391,5429057.2303,30,Alloa Water - Jim Drummond & Sons Inc.,16072 Shaws Creek Rd,,Caledon,L7C 1V7,905-838-3296,905-838-2047,alloawater@hotmail.com,http://www.alloawater.ca,,,,,,22,22-Utilities,221310,1 to 4,,3b197f8a-f89c-424d-b83a-dd2f1d1898b9,-79.9882094002,43.7644082524
-8891793.3322,5460174.4741,31,Allograph Inc.,8705 Hwy 9,,Caledon,L7E 0E9,905-880-3383,905-880-3995,info@allograph.com,http://www.allograph.com,https://www.linkedin.com/pub/allan-gane/69/244/79b,,,,,33,31/32/33-Manufacturing,339950,1 to 4,,0d54df83-92ee-4d2b-a960-9e467f4777db,-79.8763349666,43.9659420012
-8886748.1502,5457232.9138,32,Amber Renovations,17025 HWY 50,,Caledon,L7E 0K5,416-414-1922,,amberrenos@hotmail.com,http://www.amberrenovations.com,,,,,,23,23-Construction,236110,1 to 4,,75e7b643-7a70-491a-854c-733eeb13371d,-79.8310133415,43.9469198682
-8893809.8235,5416002.3958,33,Anycrete General Contracting Inc.,12205 Winston Churchill Blvd,,Caledon,L7C 1S2,905-702-0599,905-702-9363,v.anycrete@rogers.com or anycrete06@gmail.com,http://www.anycrete.com,,https://www.facebook.com/anycrete/,,,,56,"56-Administrative and support, waste management and remediation services",561730,5 to 9,,278bc659-e016-4891-a9fa-3eff46922a01,-79.8944494359,43.6796545164
-8897807.0661,5456820.9479,34,Arrow Projects,6808 Coolihans Side Rd,,Caledon,L7K 0P5,905-584-5840,905-584-5839,wroni@sympatico.ca,,,,,,,54,"54-Professional, scientific and technical services",541820,1 to 4,,389bdd88-69b3-41da-ae14-e506c9f58247,-79.9303572415,43.944255335
-8879396.3666,5445674.1277,35,Atren Moving & Delivery Services,33 Tarquini Cres,,Caledon,L7E 2V8,416-569-1568,,MARLENyokhana@hotmail.com,,,,,,,48,48/49-Transportation & Warehousing,484210,1 to 4,,9f1768f1-8422-4700-8065-51bac333bb7f,-79.7649711733,43.872113914
-8877090.5243,5445342.368,36,"Attentive Carpet, Upholstery and Duct Cleaning",41 Pineview Cres,,Caledon,L7E 2H5,905-951-2847,,attentive@rogers.com,http://www.attentive.ca,https://www.linkedin.com/pub/terry-mclean/1a/291/4b2,https://www.facebook.com/pages/Attentive-Carpet-Upholstery-Duct-Cleaning/266852033463269,@Attentive_Clean,,,56,"56-Administrative and support, waste management and remediation services",561740,1 to 4,,b3d3f435-2c16-469f-bf65-43b5a97d6eff,-79.7442574464,43.8699654484
-8884461.5652,5446208.0551,37,Auto Analyser Services Inc.,7353 Castlederg Side Rd,,Caledon,L7C 0P7,905-951-7111,905-857-6446,info@autoanalyser.com,http://www.autoanalyser.com,,,,,,54,"54-Professional, scientific and technical services",541990,1 to 4,,1f790b55-db20-4092-880a-b11a78349744,-79.8104726122,43.8755714492
-8895879.4569,5442216.3642,38,Axiom Engineering,16432 Horseshoe Hill Rd,,Caledon,L7C 2N5,416-410-5697,416-410-5697,axiom@axiomca.com,http://www.axiomca.com,,,,,,54,"54-Professional, scientific and technical services",541330,1 to 4,,ef7f6b95-1916-4d60-9d17-bdb9d7dbf6ec,-79.9130412478,43.8497177579
-8875110.4796,5446718.838,39,Barlow Taxi Ltd.,255 Glenwood Cres,,Caledon,L7E 1Z9,905-857-4200,905-951-2359,,,,,,,,48,48/49-Transportation & Warehousing,485310,5 to 9,,85a7370f-221d-4b32-8246-5b99d3b48489,-79.726470407,43.8788789146
-8904186.3633,5431130.8402,40,Bedford Consulting & Associates,877 The Grange Side Rd,,Caledon,L7C 0E4,905-838-4256,905-838-0881,rdwaldon@bedfordC4.com,http://www.bedfordC4.com,https://www.linkedin.com/pub/bob-waldon/7/b42/101,,@Bedford_Consult,,,54,"54-Professional, scientific and technical services",541611,1 to 4,,d26948d9-1ed9-43f6-8871-d66348c12252,-79.9876634406,43.7778593699
-8905353.3871,5433329.7781,41,Big Rare Wines Inc.,7 Woodland Crt,,Caledon,L7K 0G2,416-587-9947,,andy@bigrarewines.com,http://www.bigrarewines.com,https://www.linkedin.com/company/big-rare-wines-inc.,,,,,41,41-Wholesale trade,413220,1 to 4,,84cd9c95-904f-4555-83ab-5fa913fe4b1c,-79.9981469886,43.7921201618
-8876894.4516,5449318.6906,42,BLACK BRICK CAPITAL INC.,12 Westchester Blvd,,Caledon,L7E 5Y1,416-428-7728,,mike.stapleton@f55f.com,,https://Mike Stapleton,,,,,52,52-Finance and insurance,523930,1 to 4,,da9f7db2-622c-46d7-96c1-d0f1389a5a14,-79.742496094,43.8957108801
-8877541.6792,5441383.0505,43,BMS Bolton Motor Sports,7755 Healey Rd,,Caledon,L7E 0V7,905-951-6040,905-951-6041,bmscustomoffroad@aol.com,,,,,,,81,81-Other services (except public administration),811111,1 to 4,,145849b1-7fa0-44fe-bd35-4609bfcd9d31,-79.7483102413,43.8443190643
-8896248.0961,5429367.6763,44,Bolton Hardwood Flooring,14635 Chinguacousy Rd,,Caledon,L7C 3H6,905-857-9363,,joeboltonhardwoodinc@outlook.ca,http://www.boltonhardwood.ca,,,,,,23,23-Construction,238330,1 to 4,,7f3bda2b-d1bc-467f-b267-ebd6f1c16248,-79.9163527969,43.7664222462
-8884077.0897,5430270.3674,45,BP Landscaping & Snow Removal,12520 Dixie Rd,,Caledon,L7C 2L7,905-840-1111,905-843-2988,bplandscaping@sympatico.ca,http://www.bplandscaping.ca,,,@RonBPLandscape,,,56,"56-Administrative and support, waste management and remediation services",561730,10 to 19,,ca0ea968-4dff-4c66-bcc0-8f135f6c37ec,-79.8070188198,43.7722780032
-8874644.6884,5446292.9023,46,Brady Typesetting & Design,44 Sir Lancelot Crt,,Caledon,L7E 1N1,905-951-2131,,laura@bradytypesetting.com,http://www.bradytypesetting.com,https://ca.linkedin.com/in/bradytypesetting,https:///BradyType,@LauraB7,,,54,"54-Professional, scientific and technical services",541410,1 to 4,,616688e9-afdb-4449-bcbf-152e0dddc23c,-79.722286135,43.8761208682
-8890656.0127,5437294.4165,47,C H I Construction Limited,14771 Dixie Rd,,Caledon,L7C 2M9,905-584-2657,,,,,,,,,23,23-Construction,236110,1 to 4,,30e3f128-160e-44a5-afe6-362e413477e8,-79.8661182685,43.8178234644
-8881217.6232,5451568.3112,48,C.L.E.A.N. Alliance,15180 Highway 50,,Caledon,L7E 3E4,905-880-3244 or 1-866-291-0056,905-880-3245,info@cleanalliance.com,http://www.cleanalliance.com,,,,,,56,"56-Administrative and support, waste management and remediation services",562910,5 to 9,,9f2a1cef-72ab-4035-88f5-5c13dcf8fc1d,-79.7813317914,43.9102715369
-8876671.3326,5446664.2054,49,Cafe of Life Family Chiropractic,20 Temperance St,,Caledon,L7E 1B9,905-951-3086,,,,,,,,,62,62-Health care and social assistance,621340,1 to 4,,18cac556-1a9a-49d9-93d7-1207d9c24cbb,-79.7404917842,43.8785251621
-8886748.1502,5457232.9138,50,Cairns Roofing Limited,17025 Hwy 50,,Caledon,L7E 0K5,905-880-4771,905-880-7887,info@CairnsRoofing.com,http://www.cairnsroofing.com,,https://www.facebook.com/Cairns-Roofing-Ltd-166546436729950/,,,,23,23-Construction,238160,10 to 19,,ac0920e5-b7c8-4c8f-a7f0-1cc0a0d3a2df,-79.8310133415,43.9469198682
-8883849.6941,5440602.5406,51,Calder Engineering Ltd.,6440 King St,,Caledon,L7C 0S1,905-857-7600,905-584-8652,calder@caldereng.com,http://www.caldereng.com,,,,,,54,"54-Professional, scientific and technical services",541330,5 to 9,,62f31743-770c-4231-9924-b8ed66e04398,-79.8049760851,43.8392620311
-8907706.6938,5430380.3593,52,Caledon Building & Design,16927 Winston Churchill Blvd,,Caledon,L7K 1H9,416-400-5029,519-927-3714,info@caledonbuild.com,http://www.caledonbuild.com,,,,,,23,23-Construction,236110,5 to 9,,13fb821a-2ce3-4dc9-8b03-a49fd74d0b11,-80.0192870981,43.772991492
-8879399.7435,5446258.8842,53,Caledon Contracting Ltd.,14068 Duffys Lane,,Caledon,L7E 3B7,905-951-0093,905-951-2563,calcon@symaptico.ca,,,,,,,23,23-Construction,238110,1 to 4,,49c3b5c3-aeca-49ac-9a6d-d90c99db4ffb,-79.7650015087,43.8759005888
-8900272.6125,5447324.8371,54,Caledon Creek Mechanical Ltd.,18023 Horseshoe Hill Rd,,Caledon,L7K 2B8,519-927-0190,519-927-3896,caledoncreek@sympatico.ca,,,,,,,23,23-Construction,238220,5 to 9,,e35485b5-2a79-471b-ad49-5af54393fa18,-79.95250562,43.8828027098
-8902104.6475,5429820.4831,55,Caledon Diesel Service Ltd.,15843 Mississauga Rd,,Caledon,L7C 1X7,905-838-5779,,peter@caledondiesel.com,http://www.caledondiesel.com,,,,,,81,81-Other services (except public administration),811310,1 to 4,,2c99f1cf-ddd5-4fba-837c-1ca8663fa270,-79.9689630755,43.7693596805
-8890787.6819,5445437.6873,56,Caledon East Historical Society,P.O. Box 37,,Caledon,L7C 3L8,905-584-0352,,,http://www.cedhs.ca,,,,,,81,81-Other services (except public administration),813990,1 to 4,Location note: Located to nearest post office,87cc1c23-645f-4702-8678-4126eb9ab022,-79.8673010673,43.8705827467
-8882932.7275,5437917.5908,57,Caledon Equestrian School,13441 Airport Rd,,Caledon,L7C 2X5,905-584-2022,905-584-2022,coach_1@sympatico.ca,http://www.caledonequestrian.com,,https://www.facebook.com/Caledon-Equestrian-School-106990746034871/,,,,61,61-Educational services,611620,5 to 9,,aa52c172-5d1d-41bc-b734-f5d7f362c194,-79.7967388385,43.8218625818
-8901092.82,5447762.6259,58,Caledon Heritage Construction Ltd.,18244 Horseshoe Hill Rd,,Caledon,L7K 2B2,519-927-9152,,caledonheritageconstruction@sympatico.ca,,,,,,,23,23-Construction,236110,1 to 4,,5298b02f-1ab4-4b3a-a5a1-96d1a4c2dbb6,-79.9598736671,43.8856371882
-8890134.7108,5455001.7776,59,Caledon Hydro-Seeding,17346 Humberstation Rd,,Caledon,L7E 0Z2,905-880-8909 or 1-877-880-9099,,gfrangakis@accglobal.net,http://www.caledonhydroseeding.com,,,,,,56,"56-Administrative and support, waste management and remediation services",561730,1 to 4,,7dbe7ac2-c506-41f1-860d-f5d6f1b2c2fd,-79.8614353247,43.9324877636
-8883420.4584,5451377.8612,60,Caledon Music Studio,15553 Duffys Lane,,Caledon,L7E 3C8,905-586-3673,,caledonmusicstudio@live.com,,,,,,,61,61-Educational services,611610,1 to 4,,2469ff36-01eb-4f58-947f-7844daf13f38,-79.8011201902,43.9090389893
-8886142.6676,5435065.8801,61,Caledon Steam Clean,13590 Bramalea Rd,,Caledon,L7C 2P5,905-584-2672,905-789-8745,csccaledonsteamclean@gmail.com,http://www.caledonsteamclean.net,,,,,,56,"56-Administrative and support, waste management and remediation services",561740,5 to 9,,89a5612f-14b2-44b6-8524-ca63476b8724,-79.8255742136,43.8033769083
-8882383.4631,5444970.8126,62,Caledon Transmission,14389 The Gore Rd,,Caledon,L7E 0W9,905-857-8593,,,,,,,,,81,81-Other services (except public administration),811111,1 to 4,,1ea15587-b796-4a9f-8a16-a77c329ccb13,-79.7918047097,43.8675591782
-8905971.846,5453704.8832,63,Caledon Window & Door Systems Ltd.,8 Tanglewood Dr,,Caledon,L7K 0K4,519-940-4429,519-940-4666,terryp@caledonwindows.com,http://www.caledonwindowanddoorsystemsltd.com,,,,,,23,23-Construction,238390,1 to 4,,b3a93054-c204-41f4-8861-601529aca955,-80.0037026861,43.9240971983
-8877572.1574,5445524.2011,64,Caledon's Leadership Forum for Women,Caledon East,,Caledon,L7E 2G6,905-951-1217,,theforum@bell.net,http://www.theleadershipforum.ca,,https://www.facebook.com/Leadership.Forum.for.Women.Caledon/,,,,62,62-Health care and social assistance,624190,1 to 4,,a976b04a-3290-4374-ae65-7f1a6271d3b9,-79.7485840285,43.8711430031
-8875135.9821,5445669.403,65,Cam Moulding & Plastering Limited,405 Queen St S,,Caledon,L7E 2B5,905-880-2841,,info@cammoulding.com,http://www.cammoulding.com,,,,,,23,23-Construction,238140,1 to 4,,0fedc5e3-17d6-45f5-ab3e-9fb934043173,-79.7266995008,43.8720833157
-8909498.597,5452139.6032,66,Canine Connections Dog Grooming,3678 Highpoint Side Rd,,Caledon,L7K 0J4,519-927-0555,,,,,https://www.facebook.com/pages/Canine-Connections-Professional-Dog-Grooming/215164668574514,,,,81,81-Other services (except public administration),812910,1 to 4,,93d067c4-d1cd-4e9a-9127-141a9dc9fb30,-80.0353840197,43.9139686655
-8890856.7854,5444204.3088,67,Carson Dunlop & Associates Ltd.,23 Orsi Rd,,Caledon,L7C 1K9,905-584-1161,,David.Frost@carsondunlop.com,http://www.carsondunlop.com,https://www.linkedin.com/company/carson-dunlop-&-associates-ltd,https://www.facebook.com/carsondunlop,@carsondunlop,,YouTube: Carson Dunlop Google+: Carson Dunlop,54,"54-Professional, scientific and technical services",541350,1 to 4,,f61936a6-a46c-466c-9cd9-38d250eacaa3,-79.8679218354,43.8625948321
-8887543.7765,5448972.7272,68,Cavalry Contracting Inc.,7233 Old 20 Side Rd,,Caledon,L7C 0A2,905-584-5352,1-888-437-167,info@cavalrycontracting.com,http://www.cavalrycontracting.com,,https://www.facebook.com/cavalrycontracting,,,,23,23-Construction,236110,10 to 19,,d30d4208-0a22-4309-97b7-46cb14653b29,-79.8381605764,43.893471323
-8880010.802,5434223.8035,69,Cheema Cleaning Services Ltd.,12366 Airport Rd,,Caledon,L7C 2W1,905-951-7156,905-951-7527,info@ccsclean.ca,http://www.ccsclean.ca,,,,,,56,"56-Administrative and support, waste management and remediation services",561740,100 to 199,,f6213e12-8835-4e23-a40b-722751a402b7,-79.7704907455,43.7979172093
-8896594.8378,5432301.8246,70,Cheltenham Water Supply,15110 McLaughlin Rd,,Caledon,L7C 2A6,905-838-2346,,info@cheltwater.ca,http://www.cheltwater.ca/en,,,,,,41,41-Wholesale trade,413210,1 to 4,,2d7bb70b-aea8-469a-8e4d-36c61207733b,-79.9194676275,43.7854539859
-8890983.1094,5432176.5293,71,Chico's Barbeque Catering,14069 Kennedy Rd,,Caledon,L7C 2H4,905-838-3647,,chicosbbqfoods@bellnet.ca,http://www.chicosfunbbq.com,https://www.linkedin.com/pub/chico-s-bbq-catering/6b/805/7b3?trk=tbr,https://www.facebook.com/ChicosBbqCatering,@ChicosBBQCater,,,72,72-Accommodation and food services,722511,5 to 9,,50d69108-b71e-46a2-903b-8dcb7c1e559f,-79.8690566294,43.7846414054
-8877473.3155,5447659.2758,72,Christine Tassone Acupuncture,9 Laurel Park Gate,,Caledon,L7E 2N8,905-951-2035,,,http://www.boltonacupuncture.com,,,,,,62,62-Health care and social assistance,621390,1 to 4,,0a2c940b-1131-4a9b-bca9-b0a391d1abfa,-79.7476961156,43.8849680469
-8881314.0309,5438318.2727,73,City Truck & Trailer Repair,13254 Innis Lake Rd,,Caledon,L7C 2Y5,416-557-5522,,info@citytruckrepair.com,http://www.citytruckrepair.com,,,,,,81,81-Other services (except public administration),811111,1 to 4,,9e95ea0a-1288-4277-9a8a-d66be721ecb7,-79.7821978436,43.8244594673
-8874654.0995,5446111.0533,74,Classic Con-Concrete Limited,24 Sir Lancelot Crt,,Caledon,L7E 1N2,416-464-2876,905-951-7050,info@classic-con.com,http://www.classic-con.com,,,,,,23,23-Construction,238330,1 to 4,,c20e632e-33c9-42a2-84a2-6a753e2965c8,-79.7223706763,43.8749433088
-8878829.9329,5445880.7557,75,ClassicPrint Inc.,32 Loontail St,,Caledon,L7E 2X1,905-951-3242,905-951-7348,classicprint@rogers.com,http://www.classicprint.ca,,,,,,32,31/32/33-Manufacturing,323119,1 to 4,,c48b7e84-01d0-4f69-81c7-74a7c9f57b1c,-79.7598828148,43.8734519906
-8874079.7541,5446709.8802,76,Clean Time Carpet Care,16 Coolspring Cres,,Caledon,L7E 1W6,905-951-8821,,toni@cleantime.com,http://www.cleantime.com,,,,,,56,"56-Administrative and support, waste management and remediation services",561740,1 to 4,,351889fd-0231-4ecb-adb6-8f729391d67c,-79.7172112454,43.8788209116
-8913230.4777,5444212.1911,77,Copeland's Concrete Floor Finishing Inc.,54 Margaret St,,Caledon,L7K 0E3,519-941-2822,,,,,,,,,23,23-Construction,236220,5 to 9,,5020e56e-9882-44a3-bd8e-85ae92f33281,-80.0689080687,43.8626458944
-8905038.9117,5443833.1806,78,Court Support Services Traffic,P.O. Box 91,,Caledon,L7C 3L3,905-584-6152,,cssttv@rogers.com,http://www.courtsupportservices.com,,,,,,54,"54-Professional, scientific and technical services",541190,1 to 4,Location note: Located to nearest post office,01fda296-32fd-4494-922c-3700d1261410,-79.9953220029,43.8601910358
-8888631.3487,5443028.5144,79,CPA Accounting Tax,15246 Airport Rd,,Caledon,L7C 2W7,905-584-5858,,kulwantd@kkdcpa.com,,,,,,,54,"54-Professional, scientific and technical services",541212,1 to 4,,1a5a2eb5-9f90-485a-adb6-a2c08a77aca7,-79.8479304041,43.8549788612
-8879010.3948,5454686.7863,80,Creative Beginnings Interior Design,15172 Mount Plessnt Rd,,Caledon,L7E 3M4,647-274-2496,905-880-9864,longcontracting_rob@hotmail.com,,,,,,,54,"54-Professional, scientific and technical services",541410,1 to 4,,,-79.7615039258,43.9304499558
-8877252.2283,5448330.4397,81,Crime Check Compliance Inc.,390 Kingsview Dr,,Caledon,L7E 3Z1,905-857-7179,905-857-0402,dannie@cccinc.ca,http://www.cccinc.ca,,,,,,62,62-Health care and social assistance,624190,1 to 4,,fe502422-26f4-4196-abf7-f14ae93a3347,-79.7457100558,43.8893133075
-8876262.6589,5446618.3514,82,Crystal's Luscious Lashes,62 Queen St S,2A,Caledon,L7E 1B3,416-910-8317,,crystallarouche@hotmail.com,http://www.crystalspa.ca,,https://www.facebook.com/Crystals-Luscious-Lashes-229090487170065/,,@crystals_luscious_lashes,,81,81-Other services (except public administration),812190,1 to 4,,3b9afe09-f47f-43ec-aaa5-8b5445b82522,-79.7368206064,43.8782282494
-8908960.7765,5439630.3228,83,Cypress Hills Landscaping,18471 Main St,,Caledon,L7K 1R1,519-927-1100,519-927-3337,mike@cypresshillslandscaping.ca,http://www.cypresshillslandscaping.ca,,https://www.facebook.com/CypressHills-Landscaping-Snow-Removal-Inc-404782396385523/,,,,56,"56-Administrative and support, waste management and remediation services",561730,10 to 19,,f8669b54-f012-4d60-bb85-b3b41caabeed,-80.0305527056,43.8329623036
-8897976.2708,5447046.4484,84,D F Post Contracting Inc.,17582 St Andrews Rd,,Caledon,L7K 2C4,519-927-3374,519-927-9147,d.f.postcont@xplornet.com,,,,,,,23,23-Construction,237110,1 to 4,,2a0b8758-23a9-4a64-8748-bbee95ffd866,-79.9318772385,43.8810002012
-8881156.551,5436781.2117,85,Dalewood Productions,6209 Healey Rd,,Caledon,L7C 0X1,647-406-0384,,dalewood@dalewoodproductions.com,http://www.dalewoodproductions.com,https://www.linkedin.com/pub/manjit-k-singh/17/7a1/619,https://www.facebook.com/groups/16557185988/,,,YouTube: Dalewood Productions,51,51-Information and cultural industries,512110,10 to 19,,6c19bdd7-e58d-4658-b9cc-3f84b66130ee,-79.7807831796,43.8144969046
-8890385.1324,5445036.2707,86,Danby Landscaping Limited,15879 Airport Rd,,Caledon,L7C 1J3,905-584-9783,905-584-9783,danbyland@hotmail.com,,,,,,,56,"56-Administrative and support, waste management and remediation services",561730,1 to 4,,7448f2ba-d7d2-495b-b25c-48892a543af5,-79.863684905,43.8679831094
-8876640.3061,5446607.4742,87,Deanna L. Hucklack Professional Corp.,69 King St W,,Caledon,L7E 5T5,905-951-1714,905-951-9314,info@huclacklaw.ca,http://www.huclacklaw.ca,https://www.linkedin.com/in/deannahuclack,https://www.facebook.com/HuclackLaw/?ref=hl,,,Google+: Deanna Huclack Legal Offices,54,"54-Professional, scientific and technical services",541110,1 to 4,,2181e892-a129-4379-be6a-3b36e110f154,-79.7402130677,43.8781578177
-8886554.5704,5460097.4786,88,Dell Services Snow Removal,58 Rowley Dr,,Caledon,L7E 0C6,416-458-3300,905-951-8598,info@dellsnowservices.com,http://www.dellsnowservices.com,,,,,,56,"56-Administrative and support, waste management and remediation services",561730,100 to 199,,2ff36902-6b31-4991-b544-c1541f37e0a7,-79.8292743833,43.9654441715
-8904627.5351,5432519.0826,89,Denson Landscaping Ltd.,16671 Mississauga Rd,,Caledon,L7K 1M8,519-927-5045 or 1-800-794-6794,519-927-5045,waldo@densonlandscaping.com,http://www.densonlandscaping.com,,,@Densonlanscape,,,56,"56-Administrative and support, waste management and remediation services",561730,5 to 9,,5980604a-bb47-4cc1-b79e-fa39a0e927b0,-79.9916265517,43.786862947
-8887164.388,5441748.9631,90,DG Psychotherapy,14799 Airport Rd,,Caledon,L7C 2X8,289-325-1241,,dianeguy@dgpsychotherapy.ca,http://www.dgpsychotherapy.ca,,https://www.facebook.com/dgpsychotherapy,,,,62,62-Health care and social assistance,623221,1 to 4,,489f7d5e-acbe-47f3-84fb-647e048aac75,-79.8347524774,43.8466897209
-8892595.3481,5449805.937,91,Discovery Packaging Inc.,17026 Innis Lake Rd,,Caledon,L7K 2K6,905-584-9082,,info@discoverypackaging.com,http://www.discoverypackaging.com,,,,,,56,"56-Administrative and support, waste management and remediation services",561910,1 to 4,,c5e6b320-cdd6-4439-be9e-d7cc2d6b575a,-79.8835396018,43.8988648885
-8913688.3446,5441225.1996,92,Dog Sports Centre,19556 Mississauga Rd,,Caledon,L7K 1M5,519-938-9479,,dogsportscentre@bellnet.ca,http://www.dogsportscentre.com,,,,,,81,81-Other services (except public administration),812910,1 to 4,,ce22fc1d-8aa0-4117-a236-01dde3c94305,-80.0730211579,43.8432963754
-8912852.9235,5443023.2954,93,Donna Keller For Health,18 McClellan Rd,,Caledon,L7K 0C9,519-217-5053,,reflexologyhealth@rogers.com,http://www.donnakellerforhealth.com,https://ca.linkedin.com/in/donna-keller-rrpr-669b5150,,,,,62,62-Health care and social assistance,621390,1 to 4,,98eb666f-55be-4912-8c8c-85022fbddc9e,-80.0655164431,43.8549450646
-8890792.4961,5445431.9126,94,ecoCaledon,P.O. Box 87,,Caledon,L7C 3L8,905-584-7336,905-584-4027,info@ecocaledon.org,http://www.ecocaledon.org,,https://www.facebook.com/pages/EcoCaledon/626733290777865,,,,81,81-Other services (except public administration),813310,1 to 4,Location note: Located to nearest post office,bbc6619a-fe83-463a-a974-1eb09e454499,-79.8673443139,43.8705453493
-8887185.0623,5456746.0862,95,Electrical Technologies Inc.,4 Herriot St,,Caledon,L7E 0C9,647-926-5041,,roman@electricaltechnologies.ca,http://www.electricaltechnologies.ca,https://ca.linkedin.com/in/roman-strzalka-796b7362,,,,,23,23-Construction,238210,1 to 4,,ff38c62b-010c-4fce-955d-f3ca1cbf4246,-79.8349381887,43.9437711227
-8873591.9897,5446079.0248,96,Empire Plaster Moulding,10 Archbury Cir,,Caledon,L7E 2H6,905-857-7831,,cs@empireplastermoulding.com,http://www.empireplastermoulding.com,,,,,,32,31/32/33-Manufacturing,327420,10 to 19,,bf964b12-b01e-40d4-8323-7b1cea5f8b8c,-79.712829585,43.8747359064
-8884414.8006,5456713.4631,97,Enviro Masters Lawn Care,2 Waterway Crt,,Caledon,L7E 0B5,888-925-5920,,rob@enviromasters.com,http://www.enviromasters.com,,https://www.facebook.com/enviromasters,@enviromasterslc,,,56,"56-Administrative and support, waste management and remediation services",561730,1 to 4,,b4c3c9a4-cc6c-4ba5-93da-11f570eb465b,-79.810052512,43.9435601129
-8904744.9597,5443219.1237,98,Eurotune,31 Travelled Rd,,Caledon,L7K 1B7,519-927-9929,,dave@eurotune.ca,http://www.eurotune.ca,,,,,,44,44/45-Retail Trade,441310,1 to 4,,25150e33-9f41-449b-9223-64acc6c26b28,-79.9926813888,43.8562135677
-8887130.1389,5457579.1525,99,Even Cut,17145 Hwy 50,,Caledon,,416-357-1176,,askus@evencut.ca,http://www.evencut.ca,,,,,,56,"56-Administrative and support, waste management and remediation services",561730,1 to 4,,3b5c0509-d53d-4a8e-a180-fc18193945c7,-79.8344448029,43.9491591998
-8875093.6468,5445658.3224,100,Falcon Overhead Doors & Docks,P.O. Box 134,,Caledon,L7C 3L8,416-226-1441,,falcondoors@hotmail.com,http://www.falcondoorsanddocks.com,,,,,,44,44/45-Retail Trade,444190,1 to 4,Location note: Located to nearest post office,f9580104-a707-4d19-bd8a-97bd05bfaa5b,-79.7263191966,43.8720115589
-8912206.9968,5437067.8903,101,Flow Water Solutions,18724 Shaws Creek Rd,,Caledon,L7K 1K3,905-838-0408 or 1-888-927-3569,519-927-1119,info@flowwater.ca,http://www.flowwater.ca,,,,,,23,23-Construction,238220,1 to 4,,2f3714d6-54c4-49db-a6ab-bae3b4e99fca,-80.0597139906,43.81635517
-8905111.8711,5434682.6087,102,Forks of the Credit Honey,1354 Forks of the Credit Rd,,Caledon,L7K 2J1,519-927-3334,,bobbee@interlog.com,,,,,,,11,"11-Agriculture, forestry, fishing and hunting",112910,1 to 4,,ef3b6a57-d4a4-48aa-902a-878be9e639ec,-79.9959774136,43.8008919958
-8875882.5871,5446074.9249,103,Gabry Fine Art,29 William St,,Caledon,L7E 4V3,905-857-6047,,,,,,,,,45,44/45-Retail Trade,453920,1 to 4,,eef7505e-c87a-415f-8361-e1005093721a,-79.7334063651,43.8747093583
-8894985.5141,5433440.419,104,George's Auto Service,14990 Hurontario St,,Caledon,L7C 1R8,905-838-3959,905-838-3562,,,,,,,,81,81-Other services (except public administration),811111,1 to 4,,8042d7c5-5925-4f88-a86b-a27a73d8f54a,-79.9050108308,43.792837608
-8898591.7341,5450721.5955,105,Glass Services,18200 Mountainview Rd,,Caledon,L7K 2E8,519-927-5456,,glassservices@bellnet.ca,http://www.glassservices.ca,,,,,,23,23-Construction,238150,1 to 4,,15c87a36-2b4e-4ee1-9aaf-9f1d3aebc170,-79.9374060358,43.9047916005
-8876572.6197,5446694.8565,106,Glen The Plumber,P.O. Box 645,,Caledon,L7E 5T5,905-857-7808,905-880-4536,glentheplumber@bell.net,http://www.glentheplumber.net,,,,,,23,23-Construction,238220,1 to 4,Location note: Located to nearest post office,66d900a6-24dc-4bc7-8445-a05467760533,-79.7396050308,43.878723632
-8885794.1056,5451646.2849,107,Good Consulting,1 Bartley Dr,,Caledon,L7E 0N1,905-880-2921,,goodconsulting@sympatico.ca,http://www.goodconsulting.ca,,,,,,54,"54-Professional, scientific and technical services",541611,1 to 4,,9e381acc-d961-4318-95b3-b26df1fad30f,-79.8224430191,43.910776159
-8876569.5958,5446691.8493,108,Green Clean Building Maintenance Inc.,P.O. Box 193,,Caledon,L7E 5T2,416-571-7109,,info@greenclean.ca,http://www.greenclean.ca,,,,,,56,"56-Administrative and support, waste management and remediation services",561722,5 to 9,Location note: Located to nearest post office,0b14c50b-be0c-4403-992e-3c204ac6c80d,-79.7395778666,43.8787041601
-8898033.2116,5433737.6243,109,Greenyard Construction Ltd.,74 McKenzie St,,Caledon,L7C 1M7,905-838-2847,,wayne@forksflyshop.ca,,,,,,,23,23-Construction,236110,1 to 4,,370291b6-0194-4fe1-9e97-3f37f15aa5ea,-79.9323887547,43.7947647936
-8894895.8112,5429929.399,110,Ground FX,14452 McLaughlin Rd,,Caledon,L7C 2A4,905-838-2779,,groundfx@bellnet.ca,http://www.groundfx.ca,,,,,,56,"56-Administrative and support, waste management and remediation services",561730,5 to 9,,591fee06-919d-483e-bff8-1f687423b956,-79.9042050181,43.770066211
-8877339.5314,5448558.642,111,Hall's Overhead Doors,427 Kingsview Dr,,Caledon,L7E 1J4,905-951-1462 or 416-573-1424,,lwhall14@hotmail.com,http://www.hallsoverheaddoors.ca,,,,,,23,23-Construction,238350,1 to 4,,2c7ce85b-8ce0-419c-bc7b-13513bd05d12,-79.7464943123,43.8907906663
-8913226.6995,5444489.5994,112,Healthy Posture Inc.,55 Thomas St,,Caledon,L7K 0E3,416-816-0884,,info@healthyposture.ca,http://www.healthyposture.ca,,,,,,54,"54-Professional, scientific and technical services",541619,1 to 4,,c90d024b-ac6c-4fca-aa85-8aec02e091e4,-80.0688741286,43.8644426076
-8875691.2472,5447085.9413,113,Heartsafe EMS Inc.,159 Victoria St,,Caledon,L7E 3G9,416-410-4911 or Toll Free: 1-888-322-3791,905-857-7312,info@heartsafe.ca,http://www.heartsafe.ca,,,@HeartSafeEMS,,,61,61-Educational services,611690,5 to 9,,2952269c-b6a0-4e65-88b2-5ccc2edfda0e,-79.7316875292,43.8812559037
-8903157.1059,5446583.1312,114,Heavenly Horse Haven,3844 Charleston Side Rd,,Caledon,L7K 1Z6,519-927-5500 or 905-757-5500,,kimpetrusev@sympatico.ca,http://www.heavenlyhorsehaven.weebly.com,,https://www.facebook.com/Heavenly-Horse-Haven-272835629440119,,,,11,"11-Agriculture, forestry, fishing and hunting",112920,1 to 4,,1586738b-0478-4d8b-bcf2-d7e54ae7a798,-79.9784174577,43.8780002029
-8890299.3477,5446022.3762,115,Herbert Matis Professional Corporation,88 Marilyn St,,Caledon,L7C 1H7,905-584-0578 or 844-538-2401,844-538-2402,,,,,,,,54,"54-Professional, scientific and technical services",541212,1 to 4,,56bf37a6-434d-49a8-b8c6-b2b42a6e529a,-79.8629142874,43.8743690808
-8898537.0915,5435036.4167,116,Heritage Caledon Realty Inc.,10 McColl Dr,,Caledon,L7C 3L6,905-838-2490,905-838-4420,admin@reappraisals.ca,http://www.reappraisals.ca,,,@re_appraisals,,,53,53-Real estate and rental and leasing,531212,5 to 9,,54de75b5-c655-4bf5-8367-16ff6b70b6d5,-79.9369151819,43.8031858926
-8896996.0526,5422065.7358,117,Heritage Lane Renovations,13713 Heritage Rd,,Caledon,L7C 3E9,905 873-4958 or 905-867-3331,,HeritageLaneRenovations@gmail.com,http://www.heritagelanerenovations.com,,,,,Homestars: homestars.com/companies/2846956-heritage-lane-renovations-inc,23,23-Construction,236110,1 to 4,,9906f8d9-b014-4b9e-b240-0b164819c8db,-79.9230718065,43.7190334435
-8920192.8935,5445436.9847,118,Hoare Roofing Inc.,21424 Shaws Creek Rd,,Caledon,L7K 1K8,519-941-2902,519-942-4320,,,,,,,,23,23-Construction,238160,5 to 9,,8c53f1c2-a2fe-4f6a-a199-74a7be6d8fbc,-80.1314524935,43.8705782092
-8877288.0381,5449022.2199,119,Holt School of Natural Healing & Clinic,99 Taylorwood Ave,,Caledon,L7E 1J3,905-857-5454,,,http://www.holtschool.com,,,,,,61,61-Educational services,611510,1 to 4,,e7b21ff9-1b62-4d1e-b00f-5607ecfef3c5,-79.7460317404,43.8937917103
-8900083.7623,5446768.9118,120,Horseshoe Hill Massage Therapy,17912 Horseshoe Hill Rd,,Caledon,L7K 2B2,519-927-3429,519-927-3429,karen@horseshoemassage.ca,http://www.horseshoemassage.ca,,,,,,81,81-Other services (except public administration),812190,1 to 4,,b8b8b262-3422-4ffd-9f5f-eeefba9ade07,-79.9508091509,43.8792031578
-8897713.3846,5444519.2818,121,Horseshoe Hill Plumbing & Heating Incorporated,17153 Horseshoe Hill Rd,,Caledon,L7C 2P1,416-768-5908,905-584-2489,horseshoehillplumbing@gmail.com,,,,,,,23,23-Construction,238220,1 to 4,,45b4e7a2-b9e7-45a6-9b86-dba0b6483531,-79.929515694,43.8646348438
-8875236.0355,5446556.481,122,I M Automation Inc.,185 Bell Air Dr,,Caledon,L7E 2A2,905-857-0551,905-857-7897,dirk@imautomation.ca,,,,,,,33,31/32/33-Manufacturing,333990,1 to 4,,b003eb1c-9048-4e76-b461-8111bbabe425,-79.7275982952,43.8778276253
-8886726.6546,5426676.5871,123,Ideal Pampering,147 Royal Valley Dr,,Caledon,L7C 1A6,905-843-9834,,,,,,,,,81,81-Other services (except public administration),812190,1 to 4,,71ea665a-eda9-4033-ad69-e61f3b7d8a75,-79.8308202614,43.7489617292
-8913016.9869,5443797.1498,124,Incinolet Products,20 Edmund St,,Caledon,L7K 0E2,519-938-9108,519-938-9214,incinolet@rogers.com,http://www.incinolet.ca,,,,,,41,41-Wholesale trade,417990,1 to 4,,42f49b98-0260-4f73-8f8c-0db7632c4756,-80.0669902493,43.8599576617
-8897686.2936,5428345.6883,125,Inglewood Electric Inc.,23 Kennedy Rd,,Caledon,L7C 2M7,905-838-1991,,inglewoodelectric@rogers.com,http://www.inglewoodelectric.ca,,,@greginglewood,,,23,23-Construction,238210,5 to 9,,b046dcbe-4456-4cd6-b69d-0b3c82626406,-79.9292723407,43.7597919127
-8888091.5794,5451051.0593,126,Inspire Homes Inc.,7550 Mill Lane,,Caledon,L7E 0M7,416-765-2020,,office@inspirehomes.ca,http://www.inspirehomes.ca,https://www.linkedin.com/company/inspire-homes-inc.,https://www.facebook.com/InspireHomes,@Inspire_Homes,,,23,23-Construction,236110,1 to 4,,c87a3b46-319e-4498-9efe-e13cfdc74059,-79.8430815706,43.9069239456
-8913091.9594,5443782.8081,127,J-Tech Hot Runner,19767 Main St,,Caledon,L7K 0C5,519-927-1067 or Toll Free: 866-267-5832,519-927-9938,info@jtechhotrunner.com,http://www.jtechhotrunner.com,,,,,,33,31/32/33-Manufacturing,332910,1 to 4,,78823b59-22ab-43bb-a31c-393164855349,-80.0676637385,43.8598647682
-8892153.0616,5430161.9762,128,JAGG Enterprize,2831 King St,,Caledon,L7C 0S8,905-846-2373,905-838-0012,jaggenterprizes@bellnet.ca,http://www.jaggenterprizes.ca,,https://www.facebook.com/JAGGenterprizes,,,,23,23-Construction,238910,5 to 9,,f9f55075-5265-463d-9071-a585f0c67f2e,-79.8795664869,43.7715749028
-8897866.5229,5423162.5546,129,JBS Clothing,9 Odessa Blvd,,Caledon,L7C 1R2,905-838-2035 or 1-877-838-2035,,jbsclothing@rogers.com,http://www.jbsclothing.com,,https://www.facebook.com/pages/JBS-Clothing/1377279505848086?ref=br_tf,,,,44,44/45-Retail Trade,448140,1 to 4,,df341ab8-c4cc-4ced-a887-5c2ce1d16128,-79.930891371,43.7261540734
-8879358.364,5445636.7369,130,Joe's Cleaning,211 Cedargrove Rd,,Caledon,L7E 2Z4,905-456-9784 or 416-315-0519,,joeclean@bell.net,http://www.joescleaning.8k.com,,,@joescleaning,,,56,"56-Administrative and support, waste management and remediation services",561740,1 to 4,,a6f462cf-1fc0-4a0b-ba0d-99783bc31a12,-79.7646297902,43.8718717761
-8877819.217,5445267.0919,131,Joy of Yoga,78 Grapevine Rd,,Caledon,L7E 2R3,416-528-7279,,joyofyogabolton@yahoo.com,http://www.joyofyoga.ca,,,,,,71,"71-Arts, entertainment and recreation",713940,1 to 4,,3769457e-5132-4a2f-b070-9b83a146e81a,-79.7508034024,43.8694779524
-8905453.2659,5446751.0156,132,Katerina's Artistic Esthetics,18888 Kennedy Rd,,Caledon,L7K 1Y1,519-927-3371,,,,,,,,,81,81-Other services (except public administration),812190,1 to 4,,445d7ea2-f398-4dda-bb59-b012b8f819c2,-79.9990442073,43.8790872807
-8875571.7056,5447440.682,133,Kaztronics,58 Old King Rd,,Caledon,L7E 3J5,905-857-2524,905-857-4535,kaztronics@rogers.com,http://www.kaztronics.com,,,,,,81,81-Other services (except public administration),811210,1 to 4,,e6611b87-937d-468a-83fb-f352d5ba6446,-79.7306136691,43.8835527543
-8902036.2255,5456806.4766,134,Kevin Rae Construction Inc.,19774 Airport Rd,,Caledon,L7K 0A3,519-938-1709,519-938-9566,kevinraeconstruction@yahoo.ca,http://www.kevinraeconstruction.com,,,,,,23,23-Construction,238910,1 to 4,,cf6182e6-c8e1-4617-9a18-6a7e923b1597,-79.9683484152,43.9441617365
-8891119.1887,5437491.98,135,Lamoureaux Mechanical Service Ltd.,14882 Dixie Rd,,Caledon,L7C 2M2,905-584-7890,905-584-2228,service@plumbperfect.ca,http://www.plumbperfect.ca,,https://www.facebook.com/PlumbPerfectLtd,@plumbperfectltd,,,23,23-Construction,238220,1 to 4,,f7a16347-5d4b-458c-a05b-7638774ad14f,-79.870279047,43.8191040068
-8886809.1995,5452207.4351,136,Lawn Barber Inc.,16297 Humber Station Rd,,Caledon,L7E 3A4,905-880-1570 or 416-587-0063,905-880-3798,info@LawnBarber.ca,http://www.lawnbarber.ca,,,,,,56,"56-Administrative and support, waste management and remediation services",561730,5 to 9,,92abdcb7-624d-4b81-82b4-8c34f23c18d0,-79.8315617594,43.9144076152
-8903808.5687,5448248.0072,137,Ledo's Quality Roofing Ltd.,18803 Heart Lake Rd,,Caledon,L7K 2A5,519-927-5855,519-927-7700,joe@ledosqualityroofing.com,http://www.ledosqualityroofing.com,,,,,,23,23-Construction,238160,1 to 4,,1e56e7ba-abbd-44f6-b801-30bdf1bd8118,-79.9842696448,43.88877965
-8890779.8611,5429314.251,138,Limoguy,13605 Hurontario St,,Caledon,L7C 2C9,647-716-5466,1-888-804-0064,info@limoguy.ca,http://www.limoguy.ca,,https://www.facebook.com/pages/Limo-guy/347427655361575,@Limoguy2,,,48,48/49-Transportation & Warehousing,485320,5 to 9,,4aac7ddf-31df-4fc3-aaf4-352dba9716d2,-79.8672308215,43.7660756559
-8905460.9502,5447044.5489,139,Lincoln Appraisal Services,18931 Kennedy Rd,,Caledon,L7K 1Y9,519-927-5477,,,,,,,,,53,53-Real estate and rental and leasing,531390,1 to 4,,19c04607-6b2f-4f17-8744-71fd40ef2b52,-79.9991132363,43.8809879054
-8877785.3636,5446123.203,140,Live to Learn,64 De Rose Ave,,Caledon,L7E 1B1,905-951-9626,,info@livetolearninc.com,http://www.livetolearninc.com,,,@Live_to_Learn,,,54,"54-Professional, scientific and technical services",541611,1 to 4,,79973974-f58b-43d1-aed9-0690ab7cec1a,-79.7504992917,43.8750219859
-8896376.8872,5437558.3316,141,Liz Shaughnessy & Associates,15858 Kennedy Rd,,Caledon,L7E 3M7,416-508-7056,,shaughnessy_liz@yahoo.ca,,,,,,,54,"54-Professional, scientific and technical services",541619,5 to 9,,e9e5a775-3ec6-44d5-ae77-504edb8bc410,-79.9175097413,43.8195340724
-8898092.2624,5433714.362,142,Lucille Weber Visual Artist,17 Lorne St,,Caledon,L7C 1L2,647-400-7591,,lucilleweber@rogers.com,http://www.lucilleweber.com,,https://www.facebook.com/pages/Lucille-Weber-Artist/201839723165079,,,,71,"71-Arts, entertainment and recreation",711511,1 to 4,,c247ebaa-b4a2-4a95-88d2-6d575585301d,-79.9329192165,43.794613955
-8875846.1727,5445848.203,143,Lund Appraisals Inc.,69 Elwood Dr W,,Caledon,L78 4W8,416-801-6014,,kenlundappraiser@gmail.com,http://www.lundappraisals.ca,,,,,,54,"54-Professional, scientific and technical services",541990,1 to 4,,483c5553-4e01-4930-a0d7-2fc01265a586,-79.7330792495,43.8732411869
-8902314.0783,5427012.4151,144,M & M Construction,468 Olde Base Line Rd,,Caledon,L7C 0H8,416-553-9374,,,,,,,,,23,23-Construction,236110,1 to 4,,d02b256c-9cdc-45d5-82e7-3c2858acd742,-79.9708444254,43.7511409573
-8890171.2983,5455256.5255,145,Manax Plumbing & Heating Ltd.,17364 Humber Station Rd,,Caledon,L7E 0Z2,905-880-5900,,ajmanax@gmail.com,http://www.manaxplumbing.ca,https://www.linkedin.com/pub/alexander-giger/3a/6a8/b70,https://www.facebook.com/manax.plumbing,@manaxplumbing,,,23,23-Construction,238220,5 to 9,,7a40361e-9d7a-471e-b73c-9cae1d49b0b7,-79.8617639954,43.9341357782
-8883696.8611,5456425.3434,146,Maple Green Tree Services,58 Palmer Cl,,Caledon,L7E 0A5,416-951-0487,,maplegreen.treeservices@gmail.com,http://www.maplegreen.ca,,,,,,56,"56-Administrative and support, waste management and remediation services",561730,5 to 9,,5732e0a1-131d-4906-9eeb-099db2183e06,-79.8036031539,43.941696502
-8915201.3881,5438118.885,147,Maple Grove Landscape Design/ Build,22 Beechgrove Side Rd,,Caledon,L7K 0L7,519-927-3635,,bruce@maplegrovelandscape.ca,http://www.maplegrovelandscape.ca,,,,,,56,"56-Administrative and support, waste management and remediation services",561730,1 to 4,,a455cb6d-c283-48ce-a92e-65c661ace157,-80.0866130557,43.8231672308
-8876705.2188,5447190.2025,148,Mary Kay Cosmetics,1 Warbrick Lane,,Caledon,L7E 1G3,905-857-0882,,,http://www.marykay.ca/mwindmuller,,https://www.facebook.com/marykaycanada,@marykaycanada,@marykaycanada,,45,44/45-Retail Trade,454390,1 to 4,,fc8090da-05a4-4d78-be05-5a32275c6ed5,-79.7407961885,43.8819309762
-8877826.1424,5450890.1465,149,Mary Kay Skin Care & Cosmetics,14400 Mount Hope Rd,,Caledon,L7E 3K3,905-951-0599,905-857-8186,,http://www.marykay.ca/mmierzwa/default.aspx,,https://www.facebook.com/marykaycanada,@marykaycanada,@marykaycanada,,41,41-Wholesale trade,414520,1 to 4,,ef5922fe-0d8b-4941-862e-f4bc13fa4b55,-79.7508656106,43.9058824935
-8877695.9617,5448771.3714,150,May Flowers by Design Inc.,465 Kingsview Dr,,Caledon,L7E 1J1,905-951-7780,951 1117,mayflowers_deb@rogers.com,http://www.mayflowersbydesign.com,,,,,,45,44/45-Retail Trade,453110,1 to 4,,d7657712-5a0a-4da6-821d-167c74453d0a,-79.7496961797,43.8921678223
-8911655.8036,5450141.0056,151,McLean's Plumbing,20554 Hurontario St,,Caledon,L7K 1W9,519-942-4850,,,,,,,,,23,23-Construction,238220,1 to 4,,cd092483-7ec1-47e6-956f-61b754a9f54a,-80.0547625313,43.9010337368
-8893938.9548,5443125.2069,152,McMullin Mechanical,16240 St Andrews Rd,,Caledon,L7C 2R8,905-584-6085,,,,,,,,,23,23-Construction,238220,1 to 4,,0988544f-65ba-48f9-9a7d-684e8c887836,-79.8956094255,43.8556052064
-8883872.85,5455908.9731,153,Meeting Facilitators International,96 Palmer Cir,,Caledon,L7E 0A5,905-880-8827,,bwithrow@facilitators.com,http://www.facilitators.com,,,,,,54,"54-Professional, scientific and technical services",541619,1 to 4,,0639c27b-fb62-418f-95e7-de87920ac535,-79.8051840888,43.9383563788
-8883302.3627,5453257.8809,154,MEI International Academy,15816 Hwy 50,,Caledon,L7E 3E5,905-880-1492,905-880-0708,world@meiacademy.com,http://www.meiacademy.com,,https://www.facebook.com/mei.international.academy.official.page?sk=app_190322544333196,@meiacademy,,,61,61-Educational services,611690,20 to 49,,dc3f8724-3d01-4578-9d3b-7dff09d9ecb9,-79.8000593174,43.9212049247
-8896821.1253,5428672.4204,155,Michele Skawski,17 Credit Rd,,Caledon,L7C 3J3,905-838-5012 or 1-888-450-8301,519-450-8301 or 1-866-286-8009,info@LiveinCaledon.ca,http://www.LiveInCaledon.ca,https://www.ca.linkedin.com/in/micheleskawski,https://www.facebook.com/MicheleSkawskiForFriends,,,,53,53-Real estate and rental and leasing,531212,1 to 4,,a438aa6a-8e7e-47e3-920d-b2308cd46e41,-79.9215004045,43.7619117268
-8915807.0558,5441158.7823,156,Mr. Eavestrough,19991 Shaws Creek Rd,,Caledon,L7K 1L6,519-941-5550,519-941-5576,mreavestrough@sympatico.ca,http://www.mreavestrough.ca,,,,,,23,23-Construction,236110,1 to 4,,df09cd35-d883-4bc7-9955-c5a85e96f0c9,-80.0920538584,43.8428660584
-8899384.8584,5429656.3066,157,Mrs. V’s,15242 Creditview Rd,,Caledon,L7C 1Y5,905-838-4163,,mrsvspreserves@gmail.com,http://www.mrsvspreserves.com,,https://www.facebook.com/MrsVsPreserves,@mrsvspreserves,,,41,41-Wholesale trade,413190,1 to 4,,9d9dd085-03b9-49de-8025-f8ac874bca9b,-79.9445308023,43.7682946559
-8876067.8265,5446915.1069,158,Multiline Construction,57 David St,,Caledon,L7E 1C4,416-453-7046,905-951-7556,tony.multilineconstruction@yahoo.ca,http://www.multilineconstruction.com,,,,,,23,23-Construction,236110,10 to 19,,2c3f6ade-16a8-4e97-89c3-a627f98fd8f8,-79.7350703983,43.8801497649
-8876579.0115,5446701.4697,159,Noblewood Heating & Air Conditioning Ltd.,P.O. Box 654,,Caledon,L7E 5T5,416-702-3677,,noblewoodhvac@gmail.com,http://www.noblewoodheatingandairconditioning.com,,,,,,23,23-Construction,238220,1 to 4,Location note: Located to nearest post office,3710a35d-e3bf-4626-b35c-f77579f050d9,-79.7396624491,43.8787664536
-8884287.6468,5456185.7772,160,North By Northwest Creative,87 Palmer Cir,,Caledon,L7E 0A5,905-880-7843,,cbender@nnwcreative.com,http://www.nnwcreative.com,,,,,,54,"54-Professional, scientific and technical services",541810,1 to 4,,dfc9052b-08f6-4e14-8e10-5f14a2b78360,-79.8089102712,43.9401468999
-8875100.446,5445652.5353,161,NVP Software Solutions,P.O. Box 75056,,Caledon,L7E 1H6,905-880-2862,,inquiries@nvp-inc.com,http://www.nvp.ca,https://www.linkedin.com/company/2570168?trk=prof-exp-company-name,https://www.facebook.com/NVPSoftwareTestingInc,@NVPSoftware,,,54,"54-Professional, scientific and technical services",541514,1 to 4,Location note: Located to nearest post office,781a96db-72f1-47fb-aa28-5bbe8158489f,-79.7263802745,43.8719740824
-8876575.2174,5446697.4574,162,Oakwood Services Ltd.,P.O. Box 84,,Caledon,L7E 5T1,905-838-0884,1-866-734-2432,robbie@oakwoodservices.ca,http://www.oakwoodservices.ca,,,,,,56,"56-Administrative and support, waste management and remediation services",561730,10 to 19,Location note: Located to nearest post office,660a582e-f1a1-4d2d-b9a1-d80c784ea782,-79.7396283669,43.8787404732
-8887089.7137,5428148.3544,163,Oasis14 Salon and Spa,12625 Kennedy Rd,,Caledon,L7C 3W6,647-894-3289 or 905-453-3289,,sushmavani@yahoo.ca,,,,,,,81,81-Other services (except public administration),812115,1 to 4,,c3789822-795f-4c09-8292-06477585d103,-79.8340816745,43.7585115843
-8906946.51,5445657.4342,164,Peel Landscaping Ltd.,19002 Hurontario St,,Caledon,L7K 1W6,519-927-9404,519-927-9904,info@peellandscaping.com,http://www.peellandscaping.com,,https://www.facebook.com/pages/Peel-Landscaping-Snow-Rmvl/851534381641269,,,,56,"56-Administrative and support, waste management and remediation services",561730,10 to 19,,11562981-ec25-4bc2-90ad-2cdd2040070f,-80.0124582438,43.8720058205
-8886920.0476,5426090.6299,165,Photographic Memories,112 Valleywood Blvd,,Caledon,L7C 1B4,905-840-4244,,rvienneau4244@rogers.com,http://www.photographicmemories.ca,,,,,,54,"54-Professional, scientific and technical services",541920,1 to 4,,7763822e-c4e3-48fe-88e9-0067c4556410,-79.8325575394,43.7451592061
-8891119.1887,5437491.98,166,Plumb Perfect,14882 Dixie Rd,,Caledon,L7C 2M2,905-458-1979 toll free: 1-888-458-1979,905-584-2228,service@plumbperfect.ca,http://www.plumbperfect.ca,,https://www.facebook.com/PlumbPerfectLtd,@plumbperfectltd,,,23,23-Construction,238220,5 to 9,,3a967e6c-d469-44d4-ba9d-c1bb87fab3bc,-79.870279047,43.8191040068
-8901811.238,5456525.3503,167,Powerworx Electric Inc.,19688 Airport Rd,,Caledon,L7K 0A3,519-941-9679,519-940-3442,powerworx@bellnet.ca,,,,,,,23,23-Construction,238210,1 to 4,,e703fbca-d9eb-464d-aa88-7c08822c1d25,-79.9663273191,43.9423433789
-8891470.1005,5439851.8266,168,PROforma Creative Advertising,15296 Bramalea Rd,,Caledon,L7C 2P8,905-584-5983,905-584-9393,donna.ferron@proforma.com,http://www.proforma.com/profromacreative,https://www.linkedin.com/pub/donna-ferron-cas-basi/24/187/596,https://www.facebook.com/ProformaCreative,@Proforma,,,54,"54-Professional, scientific and technical services",541891,1 to 4,,3ac92d7c-2623-41b3-b194-4568bbd6f773,-79.8734313392,43.8343976459
-8877052.859,5455482.5854,169,R. Gabriele Builders/ Renovators,15125 Caledon King Town Line S,,Caledon,L7E 5R7,905-859-2816,,rob@rgabriele.com,http://www.rgabriele.com,,https://www.facebook.com/pages/R-Gabriel-buildersrenovators/170805876333013,,,,23,23-Construction,236110,5 to 9,,5e251d08-317b-4cb4-9547-de8d8a338823,-79.7439190879,43.9355981601
-8915238.3054,5442983.5986,170,Raymond Wand Home Inspection Service and Property Management,20100 Mississauga Rd,,Caledon,L7K 1M6,519-942-6647,,inforwhis@gmail.com,http://www.raymondwand.ca,,,,,,54,"54-Professional, scientific and technical services",541350,1 to 4,,3a1b0bef-612d-4bc4-b3c0-149be081b31a,-80.0869446867,43.8546879201
-8887368.2516,5429687.3588,171,Richards Environmental Control,3736 Old School Rd,,Caledon,L7C 0W2,905-838-1617,905-838-1794,richardsenv@sympatico.ca,,,,,,,23,23-Construction,238220,5 to 9,,1dde8d40-df33-4589-95b6-0b0fa9ad5d4d,-79.8365838211,43.7684960898
-8888936.8482,5451648.0085,172,Right Track Electric,16595 The Gore Rd,,Caledon,L7E0X5,647-990-6375,,righttrackelectric@outlook.com,,,https://www.facebook.com/RightTrackElectric/,,,,23,23-Construction,238210,1 to 4,,5d37fa24-c715-43d5-aadf-d58205f8c359,-79.8506747468,43.910787315
-8875211.257,5446223.8707,173,ROI Marketing Promotions,93 Ellewood Dr E,,Caledon,L7E 2A6,416-795-9537,,roimarketing@rogers.com,http://www.roimarketing-ca.com,,https://www.facebook.com/roimarketimg11,,,,54,"54-Professional, scientific and technical services",541619,1 to 4,,00e88879-1b17-4949-847f-d7f3443fcc27,-79.7273757061,43.8756738588
-8873649.5701,5439777.4518,174,Rossi Quality Services Inc.,8216 Mayfield Rd,,Caledon,L7E 0W2,416-748-0570,,rqs@rogers.com,,,,,,,56,"56-Administrative and support, waste management and remediation services",561730,10 to 19,,abe72625-6ff7-436e-9b35-bdee276acb7c,-79.7133468423,43.8339156916
-8874881.6743,5447254.3505,175,Roto-Static,36 Sunkist Valley Rd,,Caledon,L7E 1T1,416-787-1817,,,http://www.rotostatic.com,,https://www.facebook.com/pages/Roto-Static-Canada/424305620940521,,,,56,"56-Administrative and support, waste management and remediation services",561740,1 to 4,,50104b2e-ff4d-4f4e-bfb1-f95153e3ea3f,-79.7244150144,43.8823463184
-8891593.7571,5437816.162,176,Sacred Journey Counselling,4456 Boston Mills Rd,,Caledon,L7C 0M5,905-838-3366,,shawnaross05@hotmail.com,http://www.shawnaross.ca,,,,,,81,81-Other services (except public administration),812990,1 to 4,,b426b146-474c-4a82-a0c3-0935edbd4b42,-79.8745421664,43.8212051905
-8888898.8938,5460877.7281,177,SaveEnergy Canada,9249 Finnerty Side Rd,,Caledon,L7E 0H8,416-706-0008,,scott@savenergycanada.com,http://www.saveenergycanada.com,,,,,,41,41-Wholesale trade,419120,1 to 4,,26a40891-bcf9-407a-b1b6-8cef991cfd11,-79.8503337916,43.9704888173
-8883998.6016,5451775.8658,178,Scoles Septic Services Inc.,15714 Duffys Lane,,Caledon,L7E 3B9,905-880-4821,,kscoles@bellnet.ca,http://www.scolesseptic.com,,https://www.facebook.com/Scolesseptic,,,,23,23-Construction,238910,1 to 4,,25b7f24e-5012-4523-b9af-229f7a8a4508,-79.806313737,43.9116147544
-8875009.4598,5447174.5484,179,Serenity Health Colon Hydrotherapy,11 Sunkist Valley Rd,,Caledon,L7E 1S9,905-857-1499,,,,,,,,,62,62-Health care and social assistance,621390,1 to 4,,b7a9cbb9-daa2-4a8e-abe0-bf5efd9126d7,-79.7255629309,43.8818296186
-8898710.3729,5445111.1782,180,Shapton & Associates Ltd.,4452 Escarpment Side Rd,,Caledon,L7K 1E8,519-927-3966,519-927-3966,dshapton@gmail.com,http://www.derekshapton.com,,,,,blog: planet shapton tumblr: thunder_pino instagram: thunder_pino,54,"54-Professional, scientific and technical services",541920,1 to 4,,2f3d0290-07b6-4ce5-a527-71223f903b54,-79.9384717895,43.8684682338
-8891418.1631,5445727.4882,181,Soma Therapeutic,20 Leamster Tr,,Caledon,L7C 1H9,647-393-1999,,malberti.rmt@gmail.com,,,,,,,81,81-Other services (except public administration),812190,1 to 4,,c5b38f9c-11e4-4aee-931c-bad11727772a,-79.8729647742,43.8724594726
-8918960.4762,5442585.7628,182,Spaw Grooming Salon,20797 Winston Churchill Blvd,,Caledon,L7K 1J8,519-942-9210 or 416-996-8327,,christine@spawgroomingsalon.ca?,http://www.spawgroomingsalon.ca,,https://www.facebook.com/The-Spaw-Grooming-Salon-402660489744448/,,,,81,81-Other services (except public administration),812910,1 to 4,,a1bd33d3-1cfb-47dc-914b-dc354612a030,-80.1203815057,43.8521107886
-8918317.1374,5443080.7737,183,Starrview HR Services,20720 Shaws Creek Rd,,Caledon,L7K 1K7,647-624-4755,,tstarr@starrviewhr.ca,http://www.starrviewhr.ca,,,,,,54,"54-Professional, scientific and technical services",541612,1 to 4,,c6e8b370-b02e-4e33-9785-b216d62f6075,-80.1146022961,43.8553173938
-8905167.1478,5444516.5397,184,Stenning & Associates,1641 Spruce Dr,,Caledon,L7K 1B1,519-927-5237,,m.stenning@rogers.com,,,,,,,41,41-Wholesale trade,419120,1 to 4,,20c821b7-91b9-4292-b1aa-d7190f5f5900,-79.9964739669,43.8646170875
-8892664.2304,5439188.5833,185,Stonebridge Windows & Doors,15418 Horseshoe Hill Rd,,Caledon,L7C 2N2,519-927-9777,,brian@stonebridgewindoors.com,http://www.stonebridgewindoors.com,,,,,,23,23-Construction,238350,1 to 4,,d1cbcd63-39fd-4c15-b143-4b2a7e376d12,-79.8841583878,43.8300997107
-8886065.4831,5451682.8396,186,Sue's Ignite for Women,8 Linn Rd,,Caledon,L7E 0N3,905-880-9880,,sue.mchardy@sympatico.ca,http://www.suesignitefitness.com,,,,,,71,"71-Arts, entertainment and recreation",713940,1 to 4,,7eb3fffc-76da-4135-9c04-4f119a12af14,-79.8248808435,43.9110127279
-8894493.4457,5451985.9188,187,Supreme Source Fasteners Inc.,17717 Innis Lake Rd,,Caledon,L7K 2L1,905-584-0571,905-584-0563,supremesource@gmail.com,,https://www.linkedin.com/pub/roger-merkley/3b/a37/139,https://Supreme fasteners,,,,41,41-Wholesale trade,416330,1 to 4,,b80caf77-b2f5-4d36-989c-649a7a8ac4c8,-79.900590496,43.9129741128
-8888365.3951,5457570.1857,188,The Critter Sitter,10 Zimmerman Dr,4,Caledon,L7E 4C2,416-427-7387,,crittersitterlc@gmail.com,,,https://www.facebook.com/The-Critter-Sitter-664971043639630/home?ref=page_internal,,,,81,81-Other services (except public administration),812910,1 to 4,,6fefcea2-79dd-4678-8fc6-f17588742dbf,-79.8455412945,43.9491012077
-8898033.2116,5433737.6243,189,The Forks Fly Shop,74 McKenzie St,,Caledon,L7C 1M7,905-838-2847,,wayne@forksflyshop.ca,,,,,,,61,61-Educational services,611620,1 to 4,,8c8beb75-085e-42b9-9524-52ceef903fd7,-79.9323887547,43.7947647936
-8888575.1299,5448554.2373,190,The Great Outdoors,16095 Centreville Creek Rd,,Caledon,L7C 3C5,905-584-1142,,,,,,,,,54,"54-Professional, scientific and technical services",541320,1 to 4,,cc57f07f-6a7d-4083-9f15-bf8258155ea7,-79.847425379,43.8907621558
-8891089.6676,5442923.5888,191,The Lift Truck Doctor Ltd.,15698 Mountainview Rd,,Caledon,L7C 2V2,905-584-9660,,vutchie@lifttruckdoctor.ca,,,,,,,81,81-Other services (except public administration),811119,5 to 9,,9988ccfe-1597-46ba-b452-10af44708df9,-79.8700138521,43.8542991809
-8890461.0436,5444991.6539,192,Thomas Carberry Insurance Ltd.,15882 Airport Rd,,Caledon,L7C 16K,905-857-2709 or 905-584-2709,905-584-2707,info@thomascarberry.com,http://www.thomascarberry.com,,https://www.facebook.com/Thomas-Carberry-Insurance-1416612615326249/,,,Google+: plus.google.com/106567728503874251302/,52,52-Finance and insurance,524210,1 to 4,,a874fa48-e5d3-4f02-9e66-453d3b17a30d,-79.8643668264,43.8676941568
-8884414.6177,5438983.5515,193,Toner Connection,13879 Airport Rd,,Caledon,L7C 2X6,905 584 8663,905-584-6847,info@tonerconnection.ca,http://www.tonerconnection.ca,,,,,,81,81-Other services (except public administration),811210,1 to 4,,d14c0295-903d-4aad-8621-33912b3eaf60,-79.8100508796,43.8287710018
-8890325.5624,5432703.9662,194,Trillium Masonry Group Inc.,3744 King St,,Caledon,L7C 0R5,905-838-2229,905-838-3751,,,,,,,,23,23-Construction,238140,5 to 9,,63ac7758-51d9-406a-95d1-3b46e5911ebd,-79.8631497857,43.7880619186
-8896710.2018,5431172.9721,195,V.M.A. Enterprise,2241 Boston Mills Rd,,Caledon,L7C 0N3,905-838-2125,,vjudge@rogers.com,,,,,,,54,"54-Professional, scientific and technical services",541212,1 to 4,,b8dd66c7-51de-455b-bc1f-c3ad716b78ed,-79.9205039602,43.7781326368
-8887100.9765,5430880.2181,196,Wally's Auto Electric,13159 Heart Lake Rd,,Caledon,L7C 2K6,905-488-4400,905-488-4400,wallyauto@hotmail.com,,,,,,,44,44/45-Retail Trade,441310,1 to 4,,48db7ba1-2118-4f29-9906-7e73421d54a8,-79.8341828487,43.7762337846
-8890785.3105,5445441.3726,197,Whittier Canada Enterprise Inc.,P.O. Box 10,,Caledon,L7C 3L8,905-584-9345,905-584-1744,mail@whittiercanada.on.ca,http://www.whittiercanada.on.ca,,https://www.facebook.com/whittiercanada,,,,41,41-Wholesale trade,417990,1 to 4,Location note: Located to nearest post office,e4b4c01e-26f7-47f6-888f-ad2799b1668c,-79.8672797649,43.8706066122
-8891942.2912,5459748.1263,198,Wigo First Class Appliance Services,18350 Duffys Lane,,Caledon,L7E 3C4,905-877-3376,,,,,,,,,44,44/45-Retail Trade,443143,1 to 4,,0192af7c-8fd9-47ae-82ce-5618de88413e,-79.8776730875,43.963185324
-8892333.8418,5430522.0571,199,#10 Mini Storage,14072 Hurontario St,,Caledon,L7C 2C1,905-838-1266,,,http://www.10storage.ca,,,,,,53,53-Real estate and rental and leasing,531130,1 to 4,,86d5aff5-6f16-4b6b-a9b4-c21192598cf6,-79.8811904624,43.7739106168
-8884133.348,5438296.2118,200,1898961 Ontario Limited,13726 Airport Rd,,Caledon,L7C 2W4,647-830-1200,647-689-2014,hp.parhar@gmail.com,,,,,,,48,48/49-Transportation & Warehousing,484121,1 to 4,,f2bd450c-b292-4185-83d7-59d0061c67df,-79.8075241918,43.8243164908
-8875158.5204,5443138.8521,201,4 All Seasons Solution Providers,19A Wheeler Dr,,Caledon,L7E 4H8,905-951-9333,905-951-8573,,http://www.4allseasons.ca,,,,,,56,"56-Administrative and support, waste management and remediation services",561730,50 to 99,,5526338b-6f65-4ce6-9a1c-29956f2cb071,-79.7269019668,43.8556935868
-8873295.3501,5441579.7137,202,4 Way Metal Fabrication,161 Parr Blvd,,Caledon,L7E 2Z8,905-857-3739,905-857-0170,info@4waymetal.com,http://www.4waymetal.com,,,,,,33,31/32/33-Manufacturing,332311,20 to 49,,72435aae-4301-43dd-b29e-03caed797a0e,-79.7101648295,43.8455932038
-8872573.3425,5442762.4647,203,4Cats Art Studio,12 Parr Blvd,2,Caledon,L7E 4H1,905-857-6912,,caledon@4cats.com,http://www.4cats.com/caledon,,https://www.facebook.com/4cats,@4Cats,,,61,61-Educational services,611610,1 to 4,,697f5e6f-5682-4775-a6b4-d52a2ae1bbbd,-79.7036789263,43.8532554363
-8891904.8201,5428221.0817,204,892 Snowy Owl Squadron Royal Canadian Air Cadets,13691 McLaughlin Rd,,Caledon,L7C 3L9,905-838-2133,,CO@892snowyowl.org,http://www.892snowyowl.org,,,,,,81,81-Other services (except public administration),813410,10 to 19,,acaa8880-d50f-45d2-a8e1-be86b3b1fc6a,-79.8773364971,43.7589834521
-8873572.4504,5443786.8937,205,9 Round,12612 Hwy 50,17,Caledon,L7E 1T6,905-857-7622,,fd.furgiuele@9round.com,http://www.9round.com/boltononhwy50,,https://www.facebook.com/Bolton.ON/timeline?ref=page_internal,@9round_bolton,@9round_bolton,,61,61-Educational services,611690,5 to 9,,10ba59ba-0119-4ceb-9c68-1a917a59a3f6,-79.7126540621,43.8598912147
-8874655.1624,5442595.1761,206,A & B Rail Services LTD,12623 Coleraine Dr,,Caledon,L7E 3B5,905-951-6363,905-951-1681,receptionbolton@abrail.com,http://www.abrail.com,,https://www.facebook.com/AandBRail,,,,48,48/49-Transportation & Warehousing,488210,50 to 99,,208fa2ba-76f4-402b-9115-142520bc2531,-79.7223802273,43.8521717491
-8873934.362,5442785.0942,207,A & G The Road Cleaners Ltd.,47 Simpson Rd,,Caledon,L7E 2R6,905-857-5756,905-857-6567,sweep@theroadcleaners.com,http://www.theroadcleaners.com,,https://www.facebook.com/A-G-the-Road-Cleaners-Ltd-302144069838798/,,,,23,23-Construction,238990,100 to 199,,fd361c8e-423f-441c-beb3-cc2a93fc4778,-79.7159051689,43.8534020282
-8874514.6533,5444509.2377,208,A & J Automotive,91 Healey Rd,3,Caledon,L7E 5A9,905-857-7596,,,,,,,,,81,81-Other services (except public administration),811199,1 to 4,,eabe8946-7d92-4a5e-801e-cca3bf103d1e,-79.7211180114,43.8645697815
-8873744.3593,5444064.6377,209,A & W,12700 Hwy 50,,Caledon,L7E 1H1,905-857-1888,,,http://www.aw.ca,,,,,,72,72-Accommodation and food services,722512,10 to 19,,adfc6ece-7382-4d42-8fd4-de9bf75a9007,-79.7141983455,43.8616901848
-8873042.5301,5442755.3738,210,A-Con Construction Ltd.,50 Simona Dr,104,Caledon,L7E 4H9,905-850-8018,1-866-595-5572,kyle@aconconstruction.com,http://www.aconconstruction.com,https://ca.linkedin.com/in/anthonycacciola/,,,,,23,23-Construction,236220,20 to 49,,876fbe01-2a4a-4024-9f01-defd75fd6837,-79.7078937092,43.8532095024
-8873696.4381,5443834.9377,211,A1 Quality Furniture Ltd.,12612 Hwy 50,30,Caledon,L7E 1T6,905-857-7899,905-533-7899,a1qualityfurniture@gmail.com,http://www.A1furnituregallery.com,,,,,,33,31/32/33-Manufacturing,337910,5 to 9,,91aaecbe-7b4c-44c7-830b-3648fabdc5fd,-79.7137678616,43.8602024031
-8891626.0826,5429770.7324,212,Able Trucking Ontario Inc.,21 Wiggins Rd,,Caledon,L7C 3T5,905-838-4346,905-838-0124,able@abletrucking.ca,,,,,,,48,48/49-Transportation & Warehousing,484122,20 to 49,,d5427a85-4f32-45a1-9497-47522e024e56,-79.8748325562,43.769036942
-8891683.1664,5429979.6969,213,ACE Peel Hardware & Supply,10 Wiggins Rd,,Caledon,L7C 3T5,905-838-4434,905-838-4450,info@peelhardware.ca,http://www.peelhardware.ca,,,,,,44,44/45-Retail Trade,444130,20 to 49,,625cdea8-da5b-4032-96e4-e6fb3a6cea1b,-79.8753453482,43.7703924879
-8882790.327,5428809.37,214,Acklands Grainger,21 Merchant Rd,,Caledon,L7C 3Y7,905-970-8603,,contact@agi.ca,http://www.acklandsgrainger.com,https://www.linkedin.com/company/acklands-grainger,https://www.facebook.com/acklandsgrainger,@AGI_Canada,,,41,41-Wholesale trade,417230,200 to 499,,9e4d6de3-d9e5-40de-8074-5c9f5664f560,-79.7954596385,43.7628002176
-8876206.4131,5447056.1737,215,Acrow Limited,70 King St E,,Caledon,L7E 3G2,905-857-2669,905-857-1334,kscott@acrow.com,http://www.acrow.com,,https://www.facebook.com/pages/Acrow-Bridge/161549003869186,@AcrowBridge,,,23,23-Construction,237310,5 to 9,,53fb30c2-e18d-4ff0-8de8-745e2e959d4b,-79.7363153416,43.8810631621
-8874092.6751,5444401.5452,216,Active Green + Ross,15 Healey Rd,101,Caledon,L7E 5A1,905-857-2200,905-857-7733,15@activegreenross.com,http://www.activegreenross.com,,,,,,44,44/45-Retail Trade,441320,5 to 9,,042c1cc1-2301-45f7-bee2-16d9e63554c6,-79.7173273184,43.8638722887
-8874092.6751,5444401.5452,217,Adam G. P. Stubbs,15 Healey Rd,205,Caledon,L7E 5A1,905-533-0134,416-273-3004,info@adamstubbslaw.com,http://www.adamstubbslaw.com,,,,,,54,"54-Professional, scientific and technical services",541110,1 to 4,,25230b88-da66-4ea9-beae-7a1e168483bd,-79.7173273184,43.8638722887
-8875612.9819,5445910.0775,218,ADDX Hair Group,280 Queen St S,,Caledon,L7E 4Z5,905-857-1727,,info@Addx.com,,,,,AddxHairGroup,,81,81-Other services (except public administration),812116,1 to 4,,125a94f6-d685-4f49-ac9a-1730219101b8,-79.7309844611,43.8736418681
-8874333.4991,5442969.5274,219,Adrian Steel,40 Simpson Rd,,Caledon,L7E 1Y4,1-800-668-7942,905-565-0540,sales@adriansteel.ca,http://www.adriansteel.ca,,,,,,33,31/32/33-Manufacturing,332510,20 to 49,,78b2592d-82c6-4484-82fc-b2136e3aecca,-79.7194906775,43.8545967531
-8876413.9507,5446794.3142,220,Adryn J. Jaboni Weddings and Events,4 Queen St. S,B,Caledon,L7E 1C8,905-951-1115,,weddings@adrynjiaboni.com,http://www.adrynjiaboni.com,,https://www.facebook.com/adrynjiaboni,,@adrynjiaboni,,56,"56-Administrative and support, waste management and remediation services",561920,1 to 4,,d6716484-94b4-4d85-9018-01b7cb965841,-79.7381796832,43.8793676301
-8876555.0365,5446924.0906,221,Advance Family Chiropractic and Massage Therapy,40 Queen St N,,Caledon,L7E 1B9,905-857-5411,,advancefamilychiro@hotmail.com,http://www.advancefamilychiroandmassage.ca,,https://www.facebook.com/pages/Advance-Family-Chiropractic-Massage-Therapy/178308498893346,,,,62,62-Health care and social assistance,621310,1 to 4,,aecf5703-21f2-4179-996e-f0e7079d1f34,-79.7394470779,43.8802079348
-8874568.0471,5444224.1156,222,Advanced Precast Inc.,6 Nixon Rd,,Caledon,L7E 1K3,905-857-6111,905-857-0639,info@advancedprecastinc.com,http://www.advancedprecastinc.com,,https://www.facebook.com/pages/Advanced-Precast-Inc/564668936915047,,,,32,31/32/33-Manufacturing,327390,50 to 99,,7880ead6-4a84-4082-8520-9778943e4282,-79.7215976563,43.8627231116
-8890528.8812,5432496.2004,223,Advanced Taxidermy & Wildlife Design Ltd.,3630 King St,,Caledon,L7C 0R5,416-614-7320,905-838-4123,info@advancedtaxidermy.com,http://www.advancedtaxidermy.com,,https://www.facebook.com/advancedtaxidermy,,,,11,"11-Agriculture, forestry, fishing and hunting",115210,10 to 19,,d27a9cca-c1f7-4b5b-b28a-6fc8dfe23523,-79.8649762296,43.7867145469
-8887024.8769,5423365.7974,224,Adventist Academy - Peel Campus,2626 Mayfield Rd,,Caledon,L7C 3K7,905-459-0500,905-459-5464,peelsda@gmail.com,http://www.tadsb.com,,https://www.facebook.com/TADSB,@TJACAAAlumni,,,61,61-Educational services,611110,10 to 19,,a44b2d4d-0ac5-4c0d-9955-ebab6e26baaa,-79.8334992383,43.7274734428
-8903844.6552,5442414.5118,225,Aecon Construction & Materials Ltd.,17944 Hurontario St,,Caledon,L7K 1W5,519-927-9159,519-927-3231,brent.trott@lafargeholcim.com,http://www.aecon.com,,,,,,21,"21-Mining, quarrying, and oil and gas extraction",212323,10 to 19,,c731a219-b91a-4b8a-9a57-455d4a03ac97,-79.9845938183,43.8510014038
-8873981.8755,5443699.6157,226,Aehra Manufacturing,17 McEwan Dr W,4-5,Caledon,L7E 1H5,647-794-7415,,info@aehra.ca,http://www.aehra.ca,,,,,,33,31/32/33-Manufacturing,332710,1 to 4,,5f1f9da6-3be8-4d32-be8d-12c719403d6f,-79.7163319894,43.8593258973
-8876213.2383,5445442.0011,227,AFA Forest Products Inc.,235 Wilton Dr,,Caledon,L7E 5T5,905-857-4061,905-857-0589,acampagna@afaforest.com,http://www.afaforest.com,,,@AFAForestProduc,,,41,41-Wholesale trade,416320,20 to 49,,40ba58a8-3ebc-4fac-912f-fb5dc4a31fca,-79.7363766544,43.8706106764
-8873811.9798,5443393.3747,228,Afcan Recycling Inc.,39 Nixon Rd,,Caledon,L7E 1K1,905-951-9700,905-951-9702,,http://www.afcanrecycling.com,,,,,,41,41-Wholesale trade,419120,10 to 19,,85bccb15-d7d8-45a4-aa8d-c58c4b705456,-79.7148057908,43.857342268
-8891740.7707,5429906.9511,229,AGI Transport Inc.,20 Wiggins Rd,,Caledon,L7C 3T5,905-951-3232,1-866-214-9353,jagjit@agitransport.com,http://www.agitransport.com,,https://www.facebook.com/AGITransportINC/,,@agitransport,,48,48/49-Transportation & Warehousing,484121,50 to 99,,080fc1f1-6536-4a2c-95a9-897a87bf002f,-79.8758628159,43.7699205914
-8872197.4421,5442377.2761,230,Agrocrop Exports Ltd.,100 Agrocrop Rd,,Caledon,L7E 4K4,905-458-4551,905-458-4055,sales@agrocropexports.com,http://www.agrocropexports.com,,,,,,41,41-Wholesale trade,413190,20 to 49,,6ec16330-ac22-47c6-9889-9ecaece1f1df,-79.7003021566,43.8507601715
-8877628.7978,5434720.6726,231,Airport Auto Rental,6520 Mayfield Rd,,Caledon,L7C 0Z8,905-614-0444,,rental@airportauto.ca,http://www.airportauto.ca,,,,,,53,53-Real estate and rental and leasing,532111,1 to 4,,399459e3-5b98-4a1f-af48-1c0a78ab5793,-79.7490928441,43.801138774
-8888958.6507,5443474.2606,232,Airport Pizza,15388 Airport Rd,,Caledon,L7C 1E6,905-584-2288,,,http://www.airportpizza.ca,,https://www.facebook.com/Friends-of-Airport-Pizza-436381205612/,,,,72,72-Accommodation and food services,722512,5 to 9,,0cd03afd-103d-45a8-9f3c-fed74da8b915,-79.8508706072,43.8578662068
-8888628.5834,5443329.5081,233,Airport Salvage Services Ltd.,15321 Airport Rd,,Caledon,L7C 2X9,905-860-1400,,j.bridgeraj@gmail.com,http://www.airportsalvage.ca,,,,,,44,44/45-Retail Trade,441310,1 to 4,,838371eb-a3e4-417d-81dd-f81365f316a7,-79.847905563,43.8569285797
-8878479.9143,5448989.8222,234,Albion Auto,14289 Hwy 50,,Caledon,L7E 3H6,905-857-8413,905-857-2348,mike@albionbolton.com,http://www.albionauto.com,,,,,,81,81-Other services (except public administration),811111,5 to 9,,e77cf775-6053-4a0c-b059-7926ef9ddbf0,-79.7567385428,43.8935819841
-8876092.0156,5446342.2859,235,Albion Bolton Community Centre,150 Queen St S,,Caledon,L7E 1E3,905-857-3313,,,http://www.town.caledon.on.ca/en/live/albionboltoncc.asp,,,,,,71,"71-Arts, entertainment and recreation",713940,10 to 19,,82a5c80c-950c-40cc-a78b-405ce0073179,-79.7352876926,43.876440647
-8887727.5701,5453749.9335,236,Albion Hill Field Centre,16559 Humber Station Rd,,Caledon,L7E 3A5,905-880-1515,,,http://www.trca.ca/learning/facilities/Albion-hills-field-centre,,,@trca_fc,@trca_fc,,61,61-Educational services,611690,5 to 9,,914661de-61aa-4cc2-8594-5348e738ff6b,-79.8398116197,43.9243886745
-8886890.133,5457364.08,237,Albion Hills Auto Collision,17063 Hwy 50,,Caledon,L7E 0K5,905-880-2277,905-880-8114,info@albionhillsautocollision.com,http://www.albionhillsautocollision.com,,https://www.facebook.com/pages/Albion-Hills-Auto-Collision-Centre-Inc/107536865945249,,,,81,81-Other services (except public administration),811121,5 to 9,,3f787fb0-c816-4c9c-bb39-90bcfd6c5d34,-79.8322887942,43.947768208
-8890880.9658,5453846.3795,238,Albion Hills Bible Church,17243 The Gore Rd,,Caledon,L7E 3T2,905-880-5579,,albionhillsbiblechurch@gmail.com,http://www.albionhillsbiblechurch.com,,,,,,81,81-Other services (except public administration),813110,1 to 4,,3304d569-65eb-4512-8dac-829cce0e440d,-79.8681390455,43.9250126938
-8876543.2698,5446731.4357,239,Albion Hills Chiropractic and Massage,33 King St W,D,Caledon,L7E 1C7,905-857-8507,,annettemmay1@gmail.com,http://www.albionhillschiropractic.com,,,,,,62,62-Health care and social assistance,621310,1 to 4,,433364af-f355-4324-9c98-fafa3f0ee823,-79.7393413765,43.8789604869
-8887423.2862,5453556.4071,240,Albion Hills Community Farm,16555 Humber Station Rd,,Caledon,L7E 3A5,647-981-6281 or 647-920-9614,,info@albionhillscommunityfarm.org,http://www.albionhillscommunityfarm.org,,https://www.facebook.com/Albion-Hills-Community-Farm/215017461853676,@AHCommunityFarm,,,81,81-Other services (except public administration),813410,5 to 9,,923af7dc-f19b-47b2-a71d-8b0854937bb7,-79.8370781913,43.923136513
-8885636.8274,5455814.5932,241,Albion Hills Conservation Area,16500 Hwy 50,,Caledon,L7E 5C4,905-880-0227,905-880-1616,ahills@trca.on.ca,http://www.trca.on.ca/albionhills,,https://www.facebook.com/AlbionHillsConservation,@TRCAparks,,Google+: plus.google.com/106451015556203353749 YouTube: www.youtube.com/c/TRCATheLivingCityTV,71,"71-Arts, entertainment and recreation",712190,20 to 49,,e73d6f5f-ca78-4b12-a57e-16f7e836245f,-79.8210301629,43.9377458661
-8876312.0632,5446826.5999,242,Albion Hills Massage,18 King St E,C1,Caledon,L7E 1E8,905-951-7051,905-961-7049,info@albionhillsmassage.com,http://www.albionhillsmassage.com,,,,,,62,62-Health care and social assistance,621499,5 to 9,,8f5fca2c-c974-417b-9774-4f00d50f6a83,-79.7372644126,43.879576682
-8876312.0632,5446826.5999,243,Albion Hills Physiotherapy & Acupuncture,18 King St E,C1,Caledon,L7E 1E8,905-951-7051,905-951-7049,info@albionhillsphysio.com,http://www.albionhillsphysio.com,,,,,,62,62-Health care and social assistance,621390,5 to 9,,2ee084f8-a44a-4312-b98a-03a3b1024f94,-79.7372644126,43.879576682
-8875642.6191,5443970.7476,244,Alda-Con,365 Healey Rd,19,Caledon,L7E 5C1,416-785-4500,1-866-372-9511,enrico@aldacon.ca,http://www.aldacon.ca,,,,,,23,23-Construction,238220,10 to 19,,f0283195-6e3c-4b3d-9b1f-56f544ac472b,-79.7312506978,43.8610820581
-8886590.4375,5446235.7923,245,Aldonna Barry Personnel & Human Resource Solutions,15380 Centreville Creek Rd,A,Caledon,L7C 3B0,905-584-4242,,aldonna@ica.net,http://www.abphireandinspire.com,https://ca.linkedin.com/in/aldonnak,,,,,56,"56-Administrative and support, waste management and remediation services",561310,1 to 4,,82558bdd-c9e6-44a6-9fa4-dbb22c9d6d93,-79.8295965912,43.8757510612
-8874522.645,5444718.8919,246,Alexander Gourmet Beverages Ltd.,670 Hardwick Rd,4,Caledon,L7E 5R5,905-361-2577,905-248-3588,info@alexanderstea.com,http://www.alexanderstea.com,,,,,,31,31/32/33-Manufacturing,311920,5 to 9,,1dfaa7c6-b7da-43f6-b9bc-7c16afeb4849,-79.721189802,43.8659276275
-8875656.5809,5443981.2011,247,All Pro Restoration,365 Healey Rd,21,Caledon,L7E 5C1,416-916-6999,,admin@rainbowoakville.com,http://www.rainbowintl.com/oakville-on,,,,,,23,23-Construction,236110,5 to 9,,f5edaea6-48ee-43cb-889a-ccc7cff09f52,-79.7313761183,43.861149766
-8876565.2959,5446687.6034,248,All Star Appliance Parts and Service,P.O. Box 75005,,Caledon,L7E 1H6,905-857-7777,,contact@allstarappliance.ca,http://www.allstarappliance.ca,,,,,,81,81-Other services (except public administration),811411,1 to 4,Location note: Located to nearest post office,79777534-8e72-4794-9ec5-020de45990c8,-79.7395392407,43.8786766674
-8876476.882,5446817.5363,249,All Star Driving School Ltd.,6 Queen St N,208A,Caledon,L7E 1C8,905-857-5555,,allstarwb@gmail.com,http://www.allstardriving.ca,,https://www.facebook.com/Allstardrivingschools,@RIZWAN_ALLSTAR,,,61,61-Educational services,611690,5 to 9,,8d0b914a-8f53-46bd-8b2f-d9b39376fc6a,-79.7387450048,43.8795179944
-8875288.2909,5444483.0447,250,All Trans Services Inc.,560 Piercey Rd,,Caledon,L7E 5B4,905-857-0649,905-857-0650,,,,,,,,81,81-Other services (except public administration),811199,1 to 4,,771a715d-5e76-4166-ae71-a0427c18356c,-79.728067714,43.8644001385
-8874386.7337,5446563.7358,251,Allan Drive Middle School,254 Allan Dr,,Caledon,L7E 1R9,905-857-9144,905-857-9563,,http://schools.peelschools.org/1468/Pages/default.aspx,,,,,,61,61-Educational services,611110,20 to 49,,53318cdb-2cd9-4b96-a697-0e2f4a51cf49,-79.7199688893,43.8778746016
-8876404.6778,5446775.4491,252,Allegro Fine Foods,6 Queen St S,,Caledon,L7E 1C8,905-857-0201,,allegrofinedine@gmail.com,http://www.allegrofinefoods.com,,,,,,72,72-Accommodation and food services,722511,5 to 9,,68b3b9dd-d8f3-4236-a195-4dc7197f2420,-79.7380963836,43.8792454774
-8879679.4716,5445521.2313,253,Alliance Agri-Turf,8112 King St W,,Caledon,L7E 5T3,905-857-2000,905-857-8215,,http://www.turf.allianceagri-turf.com,,,,,,41,41-Wholesale trade,418390,20 to 49,,bea3c482-9cc2-4024-b31b-545f2afa20a2,-79.7675143486,43.8711237716
-8879871.4271,5445087.0747,254,Allmix Concrete,13975 Humber Station Rd,,Caledon,L7E 2V9,905-857-8709,,,http://www.allmixconcrete.com,,,,,,32,31/32/33-Manufacturing,327320,1 to 4,,30532be6-9743-4c54-a6cf-dd63022042e4,-79.7692387132,43.8683121256
-8904052.7521,5443025.0988,255,Allmix Concrete Caledon Plant,18075 Hurontario St,,Caledon,L7K 1X2,519-927-3550,,,http://www.allmixconcrete.ca,,,,,,32,31/32/33-Manufacturing,327320,1 to 4,,455142a8-1860-46dc-a687-7a3c5e5591e0,-79.9864631838,43.8549567428
-8891501.6339,5419481.3216,256,Alloa Public School,12287 Mississauga Rd,,Caledon,L7C 1x1,905-843-2332,905-843-2662,,http://schools.peelschools.org/1457/Pages/default.aspx,,,,,,61,61-Educational services,611110,50 to 99,,29f85e36-236d-4b87-9390-1e7885e2046d,-79.8737146206,43.7022518852
-8875357.9253,5444724.8146,257,ALPI Inc.,511 Piercey Rd,,Caledon,L7E 5B8,905-951-1067,905-951-1608,info@alpiinc.com,http://www.alpiinc.com,,,,,,33,31/32/33-Manufacturing,333248,1 to 4,,294cbaa5-2c89-496f-995b-7c69ffc88d7a,-79.7286932503,43.8659659861
-8874596.8101,5445118.2581,258,Alterna Savings,1 Queensgate Blvd,2,Caledon,L7E 2X7,416-213-7968,,marketing@alterna.ca,http://www.alterna.ca,https://Www.linkedin.com/alterna-savings/,https://www.facebook.com/AlternaSavings/,@alternasavings,@alternasavingscu,Google+: plus.google.com/+alternasavings YouTube: Alterna Savings,52,52-Finance and insurance,522112,5 to 9,,9e15dd8c-0f4c-425a-89eb-a52c9e750ce1,-79.721856038,43.8685140747
-8873114.7882,5442060.4163,259,Alto-Tec Contracting Ltd,110 Parr Blvd,5,Caledon,L7E 4J4,647-454-5050,,info@alto-tecltd.com,http://www.alto-tecltd.com,,,,,,23,23-Construction,238330,5 to 9,,e02c0251-0d9c-4960-94a0-19384019ff00,-79.7085428147,43.8487074653
-8912700.4739,5443618.7178,260,Alton Community Centre,35 Station St,,Caledon,L7K 0E2,905-584-9254,,,http://www.town.caledon.on.ca/en/live/altoncc.asp,,,,,,62,62-Health care and social assistance,624190,1 to 4,,66d680fb-022f-42e9-af24-db9d27282b9d,-80.0641469654,43.8588019165
-8912562.1476,5443132.312,261,Alton Greenhouses,19598 Main St,,Caledon,L7K 1P6,519-941-5896,519-942-8856,altongreenhouses@rogers.com,http://www.altongreenhouses.ca,,https://www.facebook.com/botanixaltongreenhouse,,,,44,44/45-Retail Trade,444220,5 to 9,,0203d62d-6fd9-4680-a94e-f575dae51a18,-80.0629043601,43.8556512386
-8913534.1977,5443559.9614,262,Alton Mill Arts Centre,1402 Queen St W,,Caledon,L7K 0C3,519-941-9300,,info@altonmill.ca,http://www.altonmill.ca,,https://www.facebook.com/AltonMill,@AltonMillArts,@alton.mill,,71,"71-Arts, entertainment and recreation",712111,1 to 4,,414d1c23-6eae-473d-9702-c022c74043aa,-80.0716364317,43.8584213327
-8912748.3799,5443458.0801,263,Alton Public School,19657 Main St,,Caledon,L7K 0E1,519-941-3729,519-941-2313,,http://schools.peelschools.org/1456/Pages/default.aspx,,,,,,61,61-Educational services,611110,20 to 49,,a9937545-267c-4fa9-9083-3c383a13be4b,-80.0645773123,43.8577614089
-8874346.3173,5442811.9267,264,Aluma Systems,44 Simpson Rd,,Caledon,L7E 1Y4,905-857-8562,905-857-8564,info@beis.com,http://www.aluma.com,,,,,,23,23-Construction,238190,1 to 4,,6c57abc2-0ffe-4dcc-815e-c27c3d7e69e6,-79.7196058247,43.8535758459
-8874817.9231,5444574.0083,265,Aluminous Lighting Products,114 Healey Rd,,Caledon,L7E 5R2,905-857-8100,905-857-8131,sales@aluminous.com,http://www.aluminous.com,,,,,,33,31/32/33-Manufacturing,335120,10 to 19,,f4f9d5d4-f18e-41d2-b19e-94033ae20e87,-79.7238423297,43.864989278
-8879455.178,5433656.759,266,AME Material and Engineering,10 Perdue Crt,2-3,Caledon,L7C 3M6,905-840-5914,905-840-7859,ame@amecorp.ca,http://www.aecon.com,,,,,,54,"54-Professional, scientific and technical services",541330,50 to 99,,68adf8ba-13c7-410b-b6f3-e0e140cf8d3b,-79.7654994919,43.7942404327
-8887313.8745,5457761.2479,267,Amica Hair Design,17201 Hwy 50,,Caledon,L7E 0K8,905-880-8766,,,http://www.amicahairdesign.ca,,,,,,81,81-Other services (except public administration),812116,1 to 4,,55b2b833-5340-4e18-93c3-3503a24c8144,-79.8360953274,43.9503368853
-8875494.5509,5445785.2069,268,Amped Nutrition,314 Queen St S,,Caledon,L7E 4Z9,905-951-7997,,info@ampednutrition.ca,http://www.ampednutrition.ca,,https://www.facebook.com/AmpedNutritionCo,@ampednutrisupps,@Amped_Nutrition,,44,44/45-Retail Trade,446191,1 to 4,,4c3acff0-f28e-459b-aca5-d3dff8e9917b,-79.7299205777,43.8728332396
-8891541.3189,5444808.5555,269,Angelos Snow Removal,11 Borland Cres,,Caledon,L7C 3M4,Office: 905-860-0777 Garage: 647-444-7669,905-860-7669,letitsnow@rogers.com,,,,,,,56,"56-Administrative and support, waste management and remediation services",561730,5 to 9,,321a7f15-8c22-4bb3-bd50-a5602e24d5b0,-79.8740711021,43.8665083396
-8872547.3488,5442795.0683,270,Arcadia Academy of Music,12 Parr Blvd,7-8,Caledon,L7E 4H1,905-857-1221,,bolton@arcadiamusicacademy.com,http://www.arcadiamusicacademy.com,,,@ArcadiaAcademy,@arcadiaacademyofmusic,"Youtube - Arcadia Academy Of Music, Pintrest - Arcadia Academy of Music",61,61-Educational services,611610,10 to 19,,1e874459-b6f1-4877-acb7-fdf4d4d9a0d3,-79.7034454214,43.8534666389
-8874299.4382,5444136.0092,271,Arctic Cold  Express,60 Healey Rd,10,Caledon,L7E 5A6,905-857-5288,,cordier_arcticcold@hotmail.com,http://www.arcticcoldexpress.com,,,,,,48,48/49-Transportation & Warehousing,484239,1 to 4,,23ef80df-32d1-42fe-8352-c126696cbae0,-79.7191847019,43.8621524552
-8873548.8685,5444203.4136,272,Ardene,50 McEwan Dr E,J6,Caledon,L7E 2Y3,877-606-4233 ext. 90,,websupport@ardene.com,http://www.ardene.com,,https://www.facebook.com/Ardene/,@ardene1982,@ardene,www.ardenecareers.com,44,44/45-Retail Trade,448120,5 to 9,,a2c23e49-0605-4050-95a7-6944e6968808,-79.7124422219,43.8625890269
-8875501.9818,5444688.4607,273,Aria Comfort Systems Inc.,490 Piercy Rd,,Caledon,L7E 5B7,905-951-2500,905-951-2507,,http://www.ariacomfortsystems.com,,,,,,23,23-Construction,238220,50 to 99,,c4a8a9f0-6c8e-4f69-95bc-62f3406e4f5c,-79.7299873315,43.8657305388
-8887433.8704,5457920.9564,274,Armstrong & Blackbury Horticulture Products,14 Birch Ave,,Caledon,L7E 0K2,905-880-5337,,info@pollenbeenest.com,http://www.pollenbeenest.com,,,,,,32,31/32/33-Manufacturing,326198,1 to 4,,6d4fff8b-25f3-4571-8d60-9d859e9e1a9f,-79.8371732681,43.9513697657
-8872779.4544,5443843.8443,275,Armstrong Petroleums Ltd.,50 Commercial Rd,,Caledon,L7E 1K4,905-951-2003,905-951-8006,info@armstrongpropane.ca,http://www.armstrongpropane.com,,,,,,41,41-Wholesale trade,412110,10 to 19,,a239b4eb-2400-45e1-bcf5-d15a8c802a25,-79.7055304601,43.860260092
-8890847.8729,5445505.771,276,Aroma Touch Day Spa,16035 Airport Rd,D,Caledon,L7C 1E7,905-584-5928,,aromatouchdayspa@yahoo.ca,http://www.aromatouchesthetics.com,,https://www.facebook.com/aromatouchestheticsspa/,,@aromatouchdayspa,,81,81-Other services (except public administration),812190,1 to 4,,a4209030-f799-41d4-8bf9-0ae5f19cfea3,-79.8678417722,43.8710236557
-8873878.7916,5443926.2906,277,ASKK Technologies Inc.,10 McEwan Dr W,4A,Caledon,L7E 1H1,905-857-7776,905-857-7710,sales@askk.com,http://www.askk.com,,,,,,51,51-Information and cultural industries,511211,5 to 9,,7ff5060d-7902-46cb-81dd-6ee321a46b50,-79.7154059706,43.8607941063
-8874048.4071,5443692.4016,278,Aspen Laminating Inc.,19 McEwan Dr W,1-5,Caledon,L7E 1G2,905-857-6577,905-857-9774,dave@aspeninc.ca,http://www.aspeninc.ca,,,,,,23,23-Construction,238350,10 to 19,,0dbfe335-001e-440f-9e0f-cf9a9273e0e9,-79.7169296521,43.8592791699
-8872450.2322,5442967.2497,279,Astra Fertility Group,12295 Hwy 50,210,Caledon,L7E 1M2,905-857-1988,905-857-1882,receptionbolton@astrafertility.com,http://www.astrafertility.com/bolton_fertility.html,,,,,,62,62-Health care and social assistance,621110,5 to 9,,1c7b17e7-8b64-41cb-8271-ed449037800b,-79.7025730083,43.8545819982
-8873230.8352,5442994.7699,280,Athletic Performance Complex,8841 George Bolton Pkwy,5 & 6,Caledon,L7E 2X8,905-857-1131,,,http://www.athleticperformancecomplex.com,,,,@theapcomplex,,71,"71-Arts, entertainment and recreation",713940,1 to 4,,31139e2a-2ac9-4e3a-aec9-f6bc09b29056,-79.7095852818,43.8547602673
-8875252.7317,5445768.2061,281,Atlantis Fish & Chip,15 Allan Dr,2,Caledon,L7E 2B4,905-857-0248,,,,,,,,,72,72-Accommodation and food services,722511,1 to 4,,3a699028-db4d-47d0-ab19-c97cc7cc5ff7,-79.7277482796,43.8727231466
-8874206.3073,5443494.1604,282,Atlas Kitchens & Bath,25 McEwan Dr W,,Caledon,L7E 1W2,905-857-1981,905-857-1982,atlaskitchens@bellnet.ca,,,,,,,33,31/32/33-Manufacturing,337110,5 to 9,,205be281-f723-4344-a5df-167e8528d685,-79.7183480935,43.8579950992
-8872824.8996,5442942.8495,283,Atos Medical Canada Inc.,20 Simona Dr,5,Caledon,L7E 4K1,1-833-514-2867,1-833-514-2867,,http://www.atosmedical.ca,,,,,,55,55-Management of companies and enterprises,551114,1 to 4,,cbd8f5c0-993a-435b-8a71-2b7658c668eb,-79.7059387017,43.8544239397
-8879604.76,5433295.3145,284,ATS Containers,43 Perdue Crt,,Caledon,L7C 0G6,905-564-7010,,billy@atscontainers.com,http://www.atscontainers.com,,https://ATS containers,,@atscontainers,,49,48/49-Transportation & Warehousing,493110,5 to 9,,c8ea64a0-c6dc-4710-9089-44da6e3f054e,-79.7668432096,43.79189667
-8875576.7979,5444555.3024,285,Attogram Corporation,11 Holland Dr,7,Caledon,L7E 1G7,905-857-3888,905-857-8115,info@attogram.com,http://www.attogram.com,,,,,,32,31/32/33-Manufacturing,325410,1 to 4,,3349db06-e7f2-4b05-ab50-a88045196d7a,-79.7306594153,43.8648681274
-8876570.2936,5447057.876,286,Auto Block Autorepair Inc.,9 Mill St,,Caledon,L7E 1C1,905-857-3715,905-857-3751,autoblock9@gmail.com,http://www.autoblockautorepair.ca,,,,,,81,81-Other services (except public administration),811111,1 to 4,,4b2c1270-a587-4ba9-959a-37343ea1d97a,-79.7395841347,43.8810741849
-8874793.7163,5442636.8865,287,Autolinx Express Inc.,12673 Coleraine Dr,,Caledon,L7E 3B5,905-951-1900,905-951-7777,dispatch@atlx.ca,http://www.autolinxexpress.com,,,,,,49,48/49-Transportation & Warehousing,493110,50 to 99,,af843177-5d53-4749-8545-26bff7dce1cd,-79.7236248772,43.852441949
-8890929.4197,5445477.0215,288,Automotive Maintenance,16040 Airport Rd,,Caledon,L7C 1E7,905-584-0454,,,http://www.automotivemaintenance.ca,,,,@automotive.maintence,,81,81-Other services (except public administration),811121,1 to 4,,22346c52-0f3f-4fcb-9f34-29eca0ee132b,-79.8685743189,43.8708374746
-8873675.0559,5443013.32,289,Avenue Building Corporation,50 Nixon Rd,,Caledon,L7E 1W2,905-951-9990,905-951-3444,reception@avenuegroup.ca,http://www.avenuegroup.ca,,,,,,23,23-Construction,236220,500+,,9e1a994b-21cb-4b8d-b9c5-86f6108c7b91,-79.7135757827,43.8548804297
-8894357.496,5449199.5087,290,Awesome Blossom Organics Limited,17221 Airport Rd,,Caledon,L7K 2J9,905-584-5691,,mariosorganics@gmail.com,,,,,@awesomeblossomorganics,,44,44/45-Retail Trade,444220,5 to 9,,9f771443-9f0a-4fd7-a378-96af7a4f70b0,-79.8993692409,43.8949393841
-8872481.2417,5442776.7779,291,Axion Insurance Services Inc.,10 Parr Blvd,103,Caledon,L7E 4G9,905-751-8207,905-951-0547,query@axioninsurance.ca,http://www.axioninsurance.ca,https://www.linkedin.com/company/axion-insurance-services-inc-,https://www.facebook.com/Axion-Insurance-Services-Inc-581762438504370/,,,,52,52-Finance and insurance,524210,1 to 4,,d218d7a6-ded9-4c6d-8aa1-23ee56b2a35f,-79.702851571,43.8533481555
-8875338.5348,5445614.8083,292,B.I.T Jewellery Design,370 Queen St S,,Caledon,L7E 4Z7,905-951-0186,905-533-0586,bitjewellerydesign@gmail.com,,,,,,,44,44/45-Retail Trade,448310,1 to 4,,bd9c727b-c4aa-4ab5-af56-927482a4bb07,-79.7285190618,43.8717297674
-8872379.6554,5442662.9819,293,BA Business Affairs Ltd.,21 Parr Blvd,3,Caledon,L7E 4G3,905-951-2225,905-951-3340,,http://www.businessaffairs.ca,,,,,,54,"54-Professional, scientific and technical services",541611,10 to 19,,cbf33b4f-f0d8-43d0-b1b8-e3a243fc459b,-79.7019390066,43.8526109936
-8875340.1982,5444138.4081,294,Babalou's Cafe and Deli,290 Healey Rd,1B,Caledon,L7E 1C9,905-951-7002,905-951-7002,babalous@bell.net,,,,,,,72,72-Accommodation and food services,722511,5 to 9,,80b3fd0a-7cc7-45c1-9954-f915cf2115a6,-79.7285340051,43.8621679934
-8874258.2519,5443777.703,295,Bachly Construction,27 Nixon Rd,1-14,Caledon,L7E 1J7,905-951-3100,905-951-3101,info@bachly.com,http://www.bachly.com,https://www.linkedin.com/company/bachly-construction,https://www.facebook.com/bachlyconstruction,@BachlyConstruct,@BachlyConstruct,,23,23-Construction,236110,20 to 49,,ee07bcd0-26bc-4cc9-bd5b-7a1911451f70,-79.7188147199,43.8598316852
-8881959.5448,5436498.3352,296,Balzan Truck Centre,13069 Airport Rd,,Caledon,L7C 2X5,905-584-2122,905-584-9829,balzantruck@bellnet.ca,http://www.balzantruck.ca,,,,,,81,81-Other services (except public administration),811111,20 to 49,,98242e16-932b-41ae-b063-c07f1facf099,-79.7879965929,43.8126632405
-8883377.9762,5431979.2031,297,Banty's Roost Golf & Country Club,12600 Bramalea Rd,,Caledon,L7C 2P3,905-843-9364,905-843-3784,info@bantysroost.ca,http://www.bantysroost.ca,,https://www.facebook.com/pages/Bantys-Roost-Golf-Country-Club/136808466335586?fref=ts,,,,71,"71-Arts, entertainment and recreation",713910,20 to 49,,a1a97e15-a440-43f0-8021-8a67226d1d7e,-79.8007385773,43.7833616598
-8873417.297,5443945.0732,298,Bargain Tire Auto Centres,12621 Hwy 50,4,Caledon,L7E 1M4,905-857-2326,905-857-2309,btac@bellnet.ca,http://www.bargaintireautocentre.ca,,,,,,44,44/45-Retail Trade,441320,1 to 4,,703d32b1-3d07-4fd8-bb9a-03f2f62d1daa,-79.7112602955,43.8609157626
-8872830.1078,5444029.7189,299,Basic Life Principles International,45 Commercial Rd,,Caledon,L7E 1R6,905-951-0001,905-951-1737,canada@office.iblp.org,http://www.iblp.org,,https://www.facebook.com/basiclifeprinciples,@iblp,,,81,81-Other services (except public administration),813110,1 to 4,,24af31c6-074c-48df-93dd-7daf9cfcf338,-79.7059854873,43.8614640152
-8876338.7932,5446887.7148,300,Beatate hair design,18 King St E,12,Caledon,L7E 1E8,416-822-7628,,salonbeatate@gmail.com,http://www.beatate.com,,,,@beatatehairsalon,,81,81-Other services (except public administration),812115,1 to 4,,8a0eb73e-60b6-4fe6-aa12-a0a68449faa1,-79.7375045328,43.8799724015
-8905050.674,5443861.1188,301,Becker's Convenience Store,3005 Charleston Side Rd,,Caledon,L7K 0V4,519-927-5731,,,,,,,,,44,44/45-Retail Trade,445120,1 to 4,,2090dd20-692f-4d6a-9f83-ecaa570304c3,-79.9954276653,43.860371995
-8873379.4369,5443976.1471,302,Bel Auto Sales,12621 Hwy 50,5,Caledon,L7E 1M4,905-857-3636,,belauto1101@gmail.com,,,,,,,44,44/45-Retail Trade,441120,1 to 4,,0ac0e711-9a6a-4b70-aa13-534b6537ee9e,-79.7109201927,43.8611170299
-8906932.0061,5433802.2976,303,Belfountain Conservation Area,10 Credit St,,Caledon,L7K 0E5,519-927-5838,,recreation@creditvalleyca.ca,http://www.creditvalleyca.ca/enjoy-the-outdoors/conservation-areas/belfountain-conservation-area/,,https://www.facebook.com/creditvalleyconservation/,@CVC_CA,@cvc_ca,Flickr: www.flickr.com/photos/cvca/ YouTube: www.youtube.com/user/CreditValleyCA/videos,71,"71-Arts, entertainment and recreation",712190,1 to 4,,ad251abf-b401-4513-b543-a8ac644fd018,-80.0123279599,43.7951841537
-8907181.0307,5433638.7709,304,Belfountain General Store & Cafe,758 Bush St,,Caledon,L7K 0E5,519-316-1111,,thecommongoodgeneral@gmail.com,http://www.thecommongoodgeneral.ca,,,,@thecommongoodgeneral,,45,44/45-Retail Trade,452999,5 to 9,,68374dd7-640d-422c-b023-9b02bca527ad,-80.0145649855,43.7941238037
-8907156.0185,5433834.9808,305,Belfountain Inn,792 Forks of the Credit Rd,,Caledon,L7K 0E7,519-927-9219,,nic.belfountaininn@gmail.com,http://www.belfountaininn.com,,,,,,72,72-Accommodation and food services,722511,5 to 9,,38db1419-e922-4973-b3a0-f218c88eb284,-80.0143402968,43.7953960777
-8907610.3491,5432753.596,306,Belfountain Public School,17247 Shaws Creek Rd,,Caledon,L7K 0E8,519-927-5212,519-927-3582,,http://schools.peelschools.org/1458/Pages/default.aspx,,,,,,61,61-Educational services,611110,20 to 49,,cf51a9fd-9a1a-465f-a095-28cafeafde8f,-80.0184216179,43.7883837728
-8907136.8325,5433559.2079,307,Belfountain Village Church,17258 Old Main St,,Caledon,L7K 0E8,519-927-3165 or 905-838-3365,,,,,https://www.facebook.com/Belfountain-Village-Church-416599121798222,,,,81,81-Other services (except public administration),813110,1 to 4,,905afee4-5ec5-4e0d-92fa-88a1fed119fa,-80.0141679465,43.7936078897
-8873018.4233,5444172.2575,308,Benson Steel Ltd.,72 Commercial Rd,,Caledon,L7E 1K4,905-857-0684,905-857-4005,info@bensonsteel.com,http://www.bensonsteel.com,,,,,,33,31/32/33-Manufacturing,332319,20 to 49,,e94da062-1392-4958-b04a-b78006636210,-79.7076771535,43.8623872318
-8876329.7403,5446872.9099,309,Bethell Hospice,18 King St E,D6,Caledon,L7E 1E8,905-951-3534,905-951-3352,info@bethellhospice.org,http://www.bethellhospice.org,,https://www.facebook.com/BethellHospice,@BethellHospice,,,62,62-Health care and social assistance,622310,1 to 4,,dc676a5b-fdd6-4ca8-b1a4-b5a23c41924d,-79.7374232091,43.87987654
-8898455.0816,5434660.088,310,Bethell Hospice,15835 McLaughlin Rd,,Caledon,L7C 1H4,905-838-3534,905-838-0302,info@bethellhospice.org,http://www.bethellhospice.org,,https://www.facebook.com/BethellHospice,@BethellHospice,,,62,62-Health care and social assistance,622310,10 to 19,,1c0914b3-f383-4043-9767-02568df3099f,-79.936178475,43.8007459781
-8891904.8201,5428221.0817,311,BFC Restaurant Café,13691 McLaughlin Rd,,Caledon,L7C 2B2,905-838-1400,905-838-1405,info@bramfly.com,http://www.bramptonflightcentre.com,,,,,,72,72-Accommodation and food services,722512,5 to 9,,07f93c68-7862-476d-a0a0-02d20169d743,-79.8773364971,43.7589834521
-8874420.0723,5443783.5433,312,BHJ Canada Meat Products Inc,24 Nixon Rd,,Caledon,L7E 1K3,905-951-2030,905-951-2032,mailbox@bhj.ca,http://www.BHJ.ca,,,@BHJ_Corporate,,,31,31/32/33-Manufacturing,311111,20 to 49,,ed13fe17-4af8-4a04-b9cd-c2b1beebe8d2,-79.7202683765,43.8598695137
-8874361.0701,5444250.0015,313,Big Bark Graphics,68 Healey Rd,1-3,Caledon,L7A 5A6,905-857-6333,905-857-6333,sales@bigbarkgraphics.com,http://www.bigbarkgraphics.com,,https://www.facebook.com/BigBarkGraphics,@BigBarkGraphics,,,32,31/32/33-Manufacturing,323119,5 to 9,,0099005a-d8c4-48a1-a31a-990b505526c1,-79.7197383509,43.8628907706
-8872646.7313,5443771.5169,314,Bilt-Rite Disposal Equipment Ltd.,143 Industrial Rd,,Caledon,L7E 1K5,905-857-0330,905-857-7669,mcbiltrite@bellnet.ca,http://www.bilt-riteequipment.com,,,,,,33,31/32/33-Manufacturing,333248,20 to 49,,01faebc6-aa69-4928-b86b-adf3326769c5,-79.7043381888,43.8597916159
-8876326.9862,5446830.6832,315,Bio Bella Hair and Beauty Salon,18 King St E,A9,Caledon,L7E 1E8,905-857-2216,,rose.biobella@gmail.com,,,,,,,81,81-Other services (except public administration),812116,1 to 4,,799fa09b-dd1f-4e3c-82f0-792b1d74816a,-79.7373984685,43.8796031214
-8873540.8729,5443758.9842,316,Bizzy Buddies,12612 Hwy 50,13A,Caledon,L7E 1T6,905-857-7648,,bb3@bizzybuddies.ca,http://www.bizzybuddies.ca,,,,,,62,62-Health care and social assistance,624410,10 to 19,,091a0cd6-7f12-4317-bb86-bbb18a3e35d3,-79.7123703969,43.8597104396
-8876611.6152,5446985.5068,317,Black Bull Pub and Eatery Ltd.,62 Queen St N,,Caledon,L7E 1B9,905-951-2200,,,,,,,,,72,72-Accommodation and food services,722511,5 to 9,,50e1e0b8-c17c-410b-921d-868c2f913b9d,-79.7399553332,43.8806056013
-8874570.5483,5445146.0,318,Black Tie Gift & Accessories,1 Queensgate Blvd,5,Caledon,L7E 2X7,905-533-4438,,sales@blacktiepackaging.com,http://www.blacktiepackaging.com,,https://www.facebook.com/blacktiegifts,,,,45,44/45-Retail Trade,453220,5 to 9,,6a405d3c-27f2-45ff-af9d-ebe52378f957,-79.7216201242,43.8686937382
-8874874.8662,5444519.1195,319,Blu-Mar Excavating & Grading Ltd.,118 Healey Rd,2,Caledon,L7E 5B2,905-951-3999,905-951-3997,admin@blumarexcavating.com,http://www.blumarexcavating.com,,,,,,23,23-Construction,236110,20 to 49,,f21dc9e6-98c1-4495-8b93-686eb05ca1ec,-79.7243538584,43.8646337832
-8875166.2272,5443960.8843,320,Blue Printing in Bolton,2 Marconi Crt,16,Caledon,L7E 1E5,905-951-6285,905-951-6285,plots@blueprintinginbolton.ca,http://www.blueprintinginbolton.ca,https://www.ca.linkedin.com/pub/susan-james/19/60/420,https://www.facebook.com/Blueprintinginbolton?ref=tn_tnmn,,,,56,"56-Administrative and support, waste management and remediation services",561430,1 to 4,,d17f1dea-498d-4a45-9d10-b949bb538b69,-79.7269711979,43.8610181727
-8874311.6617,5444220.8158,321,BMC Custom Upholstery & Interior,64 Healey Rd,1,Caledon,L7E 5A4,905-951-1911,905-857-8037,info@bmccustom.com,,,,,,,33,31/32/33-Manufacturing,337121,1 to 4,,73c011e0-2af4-4471-aadf-91bbb9054a10,-79.7192945076,43.862701739
-8875075.8922,5445573.3812,322,BMO Bank of Montreal,475 Queen St S,,Caledon,L7E 2B5,905-857-8696,905-857-1306,,http://www.BMO.ca,,https://www.facebook.com/BMOcommunity,@BMO,,,52,52-Finance and insurance,522112,10 to 19,,3c093fc6-3cc3-4f59-a0ef-b8cd0af65bc6,-79.7261597037,43.8714614892
-8912055.0115,5442483.1447,323,Boddam Custom Hockey,1430 Beech Grove Side Rd,,Caledon,L7K 0L9,519-940-0537,,sales@boddam.com,http://www.boddam.com,,https://www.facebook.com/BoddamSports,@BoddamSports,@BoddamSports,,33,31/32/33-Manufacturing,339920,10 to 19,,22a62a05-361d-4145-95c0-ee93fb94d059,-80.0583486809,43.851446019
-8872825.3564,5443150.0246,324,Bodhi Wellness,12388 Hwy 50,,Caledon,L7E 1M7,905-857-0033,,sbunyanrmt@gmail.com,,,https://www.facebook.com/bodhiwellness,,,,81,81-Other services (except public administration),812190,1 to 4,,f5059402-3193-4aa6-ac4b-a0a20caca70c,-79.7059428052,43.8557659576
-8874477.7772,5444081.9807,325,Boltex Systems Ltd.,9 Nixon Rd,1,Caledon,L7E 5A4,905-857-5850,905-857-4533,,http://www.boltex.ca,,,,,,32,31/32/33-Manufacturing,327990,1 to 4,,da0b6e4f-4064-4481-ab00-b26417dcf31e,-79.7207867484,43.8618025152
-8874612.6113,5443589.635,326,Bolton Alignment,25 Simpson Rd,,Caledon,L7E 1E4,905-857-1394,,info@boltonalignment.com,http://www.boltonalignment.com,,,,,,81,81-Other services (except public administration),811199,1 to 4,,23ac0a43-a765-4977-91f1-79920f096442,-79.7219979839,43.8586135218
-8875310.1899,5444704.6116,327,Bolton Auto Centre,521 Piercey Rd,3,Caledon,L7E 5B5,905-951-1551,905-951-0220,boltonautocentre@gmail.com,http://www.boltonautocentre.ca,,https://www.facebook.com/Boltonautocentre/,,@boltonautocentre,,81,81-Other services (except public administration),811199,1 to 4,,752d3760-cce8-4ec3-9fac-3bd08c61591a,-79.7282644363,43.8658351409
-8873133.0163,5441719.4561,328,Bolton Auto Parts,80 Simpson Rd,2,Caledon,L7E 4G2,905-951-7278,905-951-6598,bap@boltonauto.ca,,,,@BoltonAutoParts,,,44,44/45-Retail Trade,441310,20 to 49,,d828920f-aa29-4d3c-9645-ce50dd337342,-79.7087065609,43.8464985503
